SALE TYPE,SOLD DATE,PROPERTY TYPE,ADDRESS,CITY,STATE OR PROVINCE,ZIP OR POSTAL CODE,PRICE,BEDS,BATHS,LOCATION,SQUARE FEET,LOT SIZE,YEAR BUILT,DAYS ON MARKET,$/SQUARE FEET,HOA/MONTH,STATUS,NEXT OPEN HOUSE START TIME,NEXT OPEN HOUSE END TIME,URL (SEE http://www.redfin.com/buy-a-home/comparative-market-analysis FOR INFO ON PRICING),SOURCE,MLS#,FAVORITE,INTERESTED,LATITUDE,LONGITUDE
MLS Listing,,Single Family Residential,179 Piney Woods Rd,Ferrisburgh,VT,05456,425000,3,2.5,Ferrisburgh,2240,440827,1996,1,190,17,Active,,,http://www.redfin.com/VT/Ferrisburgh/179-Piney-Woods-RD-05456/home/171533735,NEREN,4803598,N,Y,44.259381243225576,-73.24457907605745
MLS Listing,,Single Family Residential,324 Swinton Rd,Bridport,VT,05734,265000,3,2.0,Bridport,1812,43560,1972,2,146,,Active,,,http://www.redfin.com/VT/Bridport/324-Swinton-Rd-05734/home/91276842,NEREN,4803508,N,Y,43.9711339,-73.3259466
MLS Listing,,Single Family Residential,3923 Ethan Allen Hwy,New Haven,VT,05472,290000,3,1.0,New Haven,1594,130680,1850,3,182,,Active,,,http://www.redfin.com/VT/New-Haven/3923-Ethan-Allen-Hwy-05472/home/91322550,NEREN,4803477,N,Y,44.10287,-73.174092
MLS Listing,,Single Family Residential,520 Little Chicago Rd,Ferrisburgh,VT,05456,182500,1,1.0,Ferrisburgh,890,21780,1940,3,205,,Active,,,http://www.redfin.com/VT/Ferrisburgh/520-Little-Chicago-Rd-05456/home/95097963,NEREN,4803430,N,Y,44.2020117,-73.2545054
MLS Listing,,Vacant Land,000 Natural Tpke,Ripton,VT,05766,39900,,,Ripton,,91040,,4,,,Active,,,http://www.redfin.com/VT/RIPTON/NATURAL-TPKE-05766/home/113923236,NEREN,4803312,N,Y,44.006168,-72.972085
MLS Listing,,Single Family Residential,122 Tow Path Ln,Ferrisburgh,VT,05456,565000,3,2.25,Ferrisburgh,2648,714383,1987,4,213,,Active,,,http://www.redfin.com/VT/Ferrisburgh/122-Tow-Path-Ln-05456/home/95098006,NEREN,4803219,N,Y,44.167408,-73.283066
MLS Listing,,Single Family Residential,630 East St,New Haven,VT,05472,420000,4,1.75,New Haven,1768,2090880,1950,5,238,,Active,,,http://www.redfin.com/VT/New-Haven/630-East-St-05472/home/171474324,NEREN,4803048,N,Y,44.117458,-73.121246
MLS Listing,,Single Family Residential,120 Pondview Dr,Bristol,VT,05443,269000,3,2.0,Bristol,1648,457380,1992,5,163,,Active,,,http://www.redfin.com/VT/Bristol/120-Pondview-Dr-05443/home/91391862,NEREN,4803046,N,Y,44.178539,-73.105133
MLS Listing,,Single Family Residential,4755 Rustic Ct,Leicester,VT,05733,699000,3,1.75,Leicester,1552,41817,2013,6,450,,Active,,,http://www.redfin.com/VT/Leicester/4755-Rustic-Ct-05733/home/169651127,NEREN,4802909,N,Y,43.88817938041741,-73.06765446014406
MLS Listing,,Vacant Land,495 Singing Cedars Rd,Orwell,VT,05760,135000,,,Orwell,,448668,,6,,,Active,,,http://www.redfin.com/VT/Orwell/495-Singing-Cedars-Rd-05760/home/91293339,NEREN,4802877,N,Y,43.756335,-73.345127
MLS Listing,,Single Family Residential,205 Crown Point Rd,Bridport,VT,05734,395000,4,1.5,Bridport,3084,286624,1820,7,128,,Active,,,http://www.redfin.com/VT/Bridport/205-Crown-Point-Rd-05734/home/147296340,NEREN,4802773,N,Y,43.9833656,-73.3162905
MLS Listing,,Single Family Residential,99 Creek Rd,Middlebury,VT,05753,149900,3,1.0,Middlebury,1064,14374,1967,7,141,,Active,,,http://www.redfin.com/VT/Middlebury/99-Creek-Rd-05753/home/91385787,NEREN,4802735,N,Y,44.0037696,-73.1598449
MLS Listing,,Single Family Residential,116 Cattail Ln,Monkton,VT,05469,389900,3,2.25,Monkton,2185,87120,2002,8,178,25,Active,,,http://www.redfin.com/VT/Monkton/116-Cattail-Ln-05443/home/171428264,NEREN,4802595,N,Y,44.274952932417875,-73.08809147467535
MLS Listing,,Single Family Residential,4863 Case St,Middlebury,VT,05753,755000,4,2.75,Middlebury,3592,4756752,1840,10,210,,Active,,,http://www.redfin.com/VT/Middlebury/4863-Case-St-05753/home/91384715,NEREN,4802466,N,Y,44.0384177,-73.0909119
MLS Listing,,Single Family Residential,49 East St,Bristol,VT,05443,223800,6,2.25,Bristol,3326,8712,1827,10,67,,Active,,,http://www.redfin.com/VT/Bristol/49-East-St-05443/home/91392091,NEREN,4802451,N,Y,44.132107,-73.075154
MLS Listing,,Single Family Residential,1417 Mountain Rd,Addison,VT,05491,219900,3,1.75,Addison,1564,87120,1997,10,141,,Active,,,http://www.redfin.com/VT/Addison/1417-Mountain-Rd-05491/home/91419685,NEREN,4802434,N,Y,44.065208,-73.292984
MLS Listing,,Single Family Residential,1787 Quaker Village Rd,Weybridge,VT,05753,495000,4,2.25,Weybridge,3936,27878,1820,11,126,,Active,,,http://www.redfin.com/VT/Weybridge/1787-Quaker-Village-Rd-05753/home/91276147,NEREN,4802412,N,Y,44.0642341,-73.2155242
MLS Listing,,Single Family Residential,605 Cove Rd,Bristol,VT,05443,239000,3,2.0,Bristol,1512,527076,1998,11,158,,Active,,,http://www.redfin.com/VT/Bristol/605-Cove-Rd-05443/home/91391498,NEREN,4802355,N,Y,44.09139,-73.0959894
MLS Listing,,Single Family Residential,262 100 Rte,Hancock,VT,05748,110000,3,2.5,Hancock,2074,892980,1900,11,53,,Active,,,http://www.redfin.com/VT/Hancock/262-VT-100-05748/home/109878083,NEREN,4802310,N,Y,43.9138048,-72.8373299
MLS Listing,,Vacant Land,00 Rte 7 Hwy,Leicester,VT,05733,35000,,,Leicester,,108464,,12,,,Active,,,http://www.redfin.com/VT/Leicester/2668-U-S-7-05733/home/171407952,NEREN,4802217,N,Y,43.882538,-73.104126
MLS Listing,,Vacant Land,200 Butternut Ridge Dr,Middlebury,VT,05753,79000,,,Middlebury,,17424,,13,,,Active,,,http://www.redfin.com/VT/Middlebury/200-Butternut-Ridge-Dr-05753/home/91384878,NEREN,4802098,N,Y,44.0260866,-73.1036062
MLS Listing,,Single Family Residential,3190 Lower Notch Rd,Bristol,VT,05443,360000,5,5.5,Bristol,5032,60983,2009,13,72,,Active,,,http://www.redfin.com/VT/Bristol/3190-Lower-Notch-Rd-05443/home/95133614,NEREN,4802045,N,Y,44.0823468,-73.0737128
MLS Listing,,Single Family Residential,2085 Lower Notch Rd,Bristol,VT,05443,275000,4,2.0,Bristol,1920,219106,2014,13,143,,Active,,,http://www.redfin.com/VT/Lincoln/2085-Lower-Notch-Rd-05443/home/109603602,NEREN,4802011,N,Y,44.0960847,-73.0745726
For-Sale-by-Owner Listing,,Single Family Residential,59 North St,Bristol,VT,05443,384000,4,2.5,Bristol,2519,16117,1835,7,152,,Active,,,http://www.redfin.com/VT/Bristol/59-North-St-05443/home/91392290,Fizber.com,5054230,N,Y,44.1373114,-73.0793893
