SALE TYPE,SOLD DATE,PROPERTY TYPE,ADDRESS,CITY,STATE OR PROVINCE,ZIP OR POSTAL CODE,PRICE,BEDS,BATHS,LOCATION,SQUARE FEET,LOT SIZE,YEAR BUILT,DAYS ON MARKET,$/SQUARE FEET,HOA/MONTH,STATUS,NEXT OPEN HOUSE START TIME,NEXT OPEN HOUSE END TIME,URL (SEE http://www.redfin.com/buy-a-home/comparative-market-analysis FOR INFO ON PRICING),SOURCE,MLS#,FAVORITE,INTERESTED,LATITUDE,LONGITUDE
MLS Listing,,Townhouse,482 Shore Rd #7,Truro,MA,02666,499000,1,1.5,Truro,709,,2008,34,704,385,Active,,,http://www.redfin.com/MA/Truro/482-Shore-Rd-02666/unit-7/home/77415666,MLS PIN,72639828,N,Y,42.0546639,-70.1303935
MLS Listing,,Single Family Residential,73 Lillian Dr,Barnstable,MA,02601,485000,3,2.0,Barnstable,1879,11761,1965,55,258,,Active,,,http://www.redfin.com/MA/Hyannis/73-Lillian-Rd-02601/home/77345277,MLS PIN,72631867,N,Y,41.6499105,-70.3207942
MLS Listing,,Single Family Residential,112 Susan Ln,Brewster,MA,02631,599000,3,2.0,Brewster,1820,18419,1972,66,329,,Active,,,http://www.redfin.com/MA/Brewster/112-Susan-Ln-02631/home/77464481,MLS PIN,72625966,N,Y,41.7516489,-70.0936927
MLS Listing,,Single Family Residential,56 Bay Ridge Dr,Dennis,MA,02660,420000,3,2.0,South Dennis,1572,7841,1974,1,267,,Active,,,http://www.redfin.com/MA/Dennis/56-Bay-Ridge-DR-02660/home/170394367,MLS PIN,72651531,N,Y,41.7212425,-70.1515342
MLS Listing,,Vacant Land,7 Lauras Way,Truro,MA,02666,325000,,,Truro,,33977,,1,,,Active,,,http://www.redfin.com/MA/Truro/7-Laura-s-Way-02666/home/120454370,CCIMLS,22002546,N,Y,42.0287444,-70.0799545
MLS Listing,,Single Family Residential,15 Honeysuckle Way,Yarmouth,MA,02673,265000,3,1.0,Yarmouth,816,11326,1970,1,325,,Active,,,http://www.redfin.com/MA/West-Yarmouth/15-Honeysuckle-Way-02673/home/135827869,MLS PIN,72651497,N,Y,41.6541991,-70.2278688
MLS Listing,,Single Family Residential,88 Beach Plum Ln,Brewster,MA,02631,549900,3,2.0,Brewster,1911,20473,1986,1,288,,Active,,,http://www.redfin.com/MA/Brewster/88-Beach-Plum-Ln-02631/home/131127762,CCIMLS,22002540,N,Y,41.7473028,-70.0465226
MLS Listing,,Single Family Residential,47 Gunning Point Ave,Falmouth,MA,02540,2900000,4,3.5,Falmouth,3115,27878,1985,1,931,,Active,,,http://www.redfin.com/MA/Falmouth/47-Gunning-Point-Rd-02540/home/77342561,CCIMLS,22002544,N,Y,41.564746,-70.6533033
MLS Listing,,Single Family Residential,3310 Main St,Barnstable,MA,02630,649900,5,2.5,Barnstable (Village),2538,10019,1825,1,256,,Active,,,http://www.redfin.com/MA/Barnstable/3310-Main-St-02630/home/77472817,MLS PIN,72651368,N,Y,41.7006266,-70.3003805
MLS Listing,,Single Family Residential,10 Holiday Ln,Dennis,MA,02639,350000,3,1.0,Dennis Port,1040,4792,1965,1,337,,Active,,,http://www.redfin.com/MA/Dennis-Port/10-Holiday-Ln-02639/home/131743955,CCIMLS,22002543,N,Y,41.6602763,-70.1388593
MLS Listing,,Single Family Residential,10 Holiday,Dennis,MA,02639,350000,3,1.0,Dennisport,1040,4791,1965,1,337,,Active,,,http://www.redfin.com/MA/Dennis-Port/10-Holiday-02639/home/171536884,MLS PIN,72651320,N,Y,41.6615941,-70.1396268
MLS Listing,,Multi-Family (2-4 Unit),31 Pondview Dr,Falmouth,MA,02536,639000,3,3.5,Falmouth,1791,20300,2005,1,357,,Active,,,http://www.redfin.com/MA/East-Falmouth/31-Pondview-Dr-02536/home/132382332,MLS PIN,72651314,N,Y,41.6232991,-70.5806187
MLS Listing,,Single Family Residential,110 Meadow Ln,Barnstable,MA,02668,1050000,4,3.0,West Barnstable,2472,77537,2018,1,425,,Active,,,http://www.redfin.com/MA/West-Barnstable/110-Meadow-Ln-02668/home/77399219,CCIMLS,22002541,N,Y,41.718265,-70.382549
MLS Listing,,Single Family Residential,64 Freeman Ln,Orleans,MA,02653,1750000,4,3.0,Orleans,1606,43560,1961,1,1090,,Active,,,http://www.redfin.com/MA/Orleans/64-Freeman-Ln-02653/home/133916631,CCIMLS,22002539,N,Y,41.8097266,-69.9605007
MLS Listing,,Townhouse,481 Buck Island Rd Unit 16 B,Yarmouth,MA,02673,229800,2,1.5,West Yarmouth,1318,,1989,1,174,,Active,,,http://www.redfin.com/MA/West-Yarmouth/481-Buck-Island-Rd-02673/unit-16B/home/135820557,CCIMLS,22002536,N,Y,41.6578246,-70.2519822
MLS Listing,,Single Family Residential,12 Bluebird Ln,Harwich,MA,02645,359000,3,1.0,Great Sand Lakes,1056,10019,1976,1,340,,Active,,,http://www.redfin.com/MA/Harwich/12-Bluebird-Ln-02645/home/132936661,CCIMLS,22002534,N,Y,41.7019021,-70.0424288
MLS Listing,,Single Family Residential,6 White,Dennis,MA,02660,284900,2,1.0,South Dennis,892,7405,1970,1,319,,Active,,,http://www.redfin.com/MA/South-Dennis/6-White-02660/home/171534440,MLS PIN,72651143,N,Y,41.7212425,-70.1515342
MLS Listing,,Single Family Residential,18 Fairway Dr,Dennis,MA,02641,529000,3,2.0,East Dennis,2383,39204,1972,1,222,,Active,,,http://www.redfin.com/MA/Dennis/18-Fairway-DR-02641/home/169879445,CCIMLS,22002529,N,Y,41.723495,-70.154053
MLS Listing,,Vacant Land,4 Nickerson & 2388 Main St,Chatham,MA,02659,620000,,,South Chatham,,100188,,1,,,Active,,,http://www.redfin.com/MA/South-Chatham/2388-Main-St-02659/home/171534167,CCIMLS,22002528,N,Y,41.6826828,-70.02075
MLS Listing,,Condo/Co-op,202 Admiralty Hts #202,Yarmouth,MA,02675,315000,2,1.5,Yarmouth Port,1180,,1986,1,267,458,Active,,,http://www.redfin.com/MA/Yarmouth-Port/202-Admiralty-Hts-02675/unit-202/home/171534121,MLS PIN,72651117,N,Y,41.7116588,-70.2098846
MLS Listing,,Single Family Residential,2388 Main & 4 Nickerson Cir,Chatham,MA,02633,620000,6,3.0,Chatham,2076,100188,1910,1,299,,Active,,,http://www.redfin.com/MA/Chatham/4-Nickerson-Ln-02633/home/131344587,CCIMLS,22002527,N,Y,41.6719703,-70.0014427
MLS Listing,,Single Family Residential,30 Ashkins Dr,Dennis,MA,02660,319900,3,1.0,Dennis,924,9583,1963,1,346,,Active,,,http://www.redfin.com/MA/South-Dennis/30-Ashkins-Dr-02660/home/131850747,MLS PIN,72651033,N,Y,41.7127725,-70.1805111
MLS Listing,,Single Family Residential,148 Saint Marks Rd,Falmouth,MA,02536,219900,2,1.0,East Falmouth,1046,17860,1964,1,210,,Active,,,http://www.redfin.com/MA/Teaticket/148-St-Marks-Rd-02536/home/132398719,CCIMLS,22002525,N,Y,41.5684882,-70.580549
MLS Listing,,Single Family Residential,3F Riverview Ave Unit F,Mashpee,MA,02649,368500,3,2.0,Cotuit Bay Condominiums,1600,,1981,1,230,383,Active,,,http://www.redfin.com/MA/Mashpee/3f-Riverview-Ave-02649/unit-F/home/171532614,MLS PIN,72651004,N,Y,41.6175491,-70.4514262
MLS Listing,,Single Family Residential,132 Uncle Venies Rd,Harwich,MA,02645,949000,8,2.5,Harwich,2990,17424,1939,1,317,,Active,,,http://www.redfin.com/MA/Harwich/132-Uncle-Venies-Rd-02645/home/77489403,CCIMLS,22002523,N,Y,41.6757743,-70.0384745
MLS Listing,,Multi-Family (2-4 Unit),26 Center St Unit D,Mashpee,MA,02649,166840,1,1.0,Mashpee,621,2,2005,1,269,,Active,,,http://www.redfin.com/MA/Mashpee/26-Center-St-02649/unit-D/home/133569041,CCIMLS,22002515,N,Y,41.648298,-70.476378
MLS Listing,,Condo/Co-op,501 Commercial St Unit U3A,Provincetown,MA,02657,925000,2,2.0,Provincetown,1272,34412,1900,1,727,,Active,,,http://www.redfin.com/MA/Provincetown/501-Commercial-St-02657/unit-U3A/home/171532067,CCIMLS,22002522,N,Y,42.0573312,-70.1770693
MLS Listing,,Single Family Residential,31 Ridge Top Rd,Barnstable,MA,02635,425000,3,2.0,Cotuit,1544,22651,1993,2,275,,Active,,,http://www.redfin.com/MA/Cotuit/31-Ridge-Top-Rd-02635/home/110977253,MLS PIN,72650902,N,Y,41.6545634,-70.4464686
MLS Listing,,Townhouse,57 West Vine St Unit C,Provincetown,MA,02657,1025000,2,2.5,Provincetown,1272,7841,2013,2,806,,Active,,,http://www.redfin.com/MA/Provincetown/57-W-Vine-St-02657/unit-C/home/170551995,CCIMLS,22002518,N,Y,42.0437007,-70.1960748
MLS Listing,,Single Family Residential,16 River St,Yarmouth,MA,02664,475000,4,3.0,South Yarmouth,1690,23522,1960,2,281,,Active,,,http://www.redfin.com/MA/South-Yarmouth/16-River-St-02664/home/135691355,CCIMLS,22002514,N,Y,41.6584325,-70.1988593
MLS Listing,,Single Family Residential,38 Parker Rd,Barnstable,MA,02655,1150000,4,4.0,Barnstable,2968,20038,1993,3,387,,Active,,,http://www.redfin.com/MA/Osterville/38-Parker-Rd-02655/home/111078451,MLS PIN,72650727,N,Y,41.6276263,-70.3870058
MLS Listing,,Single Family Residential,96 Rocky Point Rd,Bourne,MA,02532,2395000,7,5.0,Gray Gables,3684,87120,1864,3,650,,Active,,,http://www.redfin.com/MA/Bourne/96-Rocky-Point-Rd-02532/home/128937721,MLS PIN,72650722,N,Y,41.7261458,-70.6220279
MLS Listing,,Condo/Co-op,26 Pleasant Lake Ave #13,Harwich,MA,02645,179900,1,1.0,Harwich,710,137214,1994,3,253,,Active,,,http://www.redfin.com/MA/Harwich/26-Pleasant-Lake-Ave-02645/unit-13/home/133056178,CCIMLS,22002516,N,Y,41.6875166,-70.0760243
MLS Listing,,Vacant Land,591 Wakeby Rd,Barnstable,MA,02648,249000,,,Barnstable,,65340,,3,,,Active,,,http://www.redfin.com/MA/Marstons-Mills/591-Wakeby-Rd-02648/home/110992341,MLS PIN,72650720,N,Y,41.6616775,-70.446608
MLS Listing,,Single Family Residential,26 D Center St,Mashpee,MA,02649,166840,1,1.0,Mashpee,621,2,2005,3,269,,Active,,,http://www.redfin.com/MA/Mashpee/26-Center-St-02649/unit-B/home/77400945,MLS PIN,72650714,N,Y,41.648298,-70.476378
MLS Listing,,Single Family Residential,594 Circuit Ave,Bourne,MA,02559,1399999,2,2.5,Bourne,1666,12632,2020,3,840,,Active,,,http://www.redfin.com/MA/Pocasset/594-Circuit-Ave-02559/home/77479460,MLS PIN,72648326,N,Y,41.6848014,-70.6237126
MLS Listing,,Single Family Residential,8 Dexter Ave,Sandwich,MA,02563,349000,2,1.0,Sandwich (Village),800,8712,1971,3,436,,Active,,,http://www.redfin.com/MA/Sandwich/8-Dexter-Ave-02563/home/77369521,MLS PIN,72650703,N,Y,41.7678033,-70.4999747
MLS Listing,,Single Family Residential,9 Green Pond Rd,Falmouth,MA,02536,439900,3,3.0,East Falmouth,1104,14375,1976,3,398,,Active,,,http://www.redfin.com/MA/East-Falmouth/9-Green-Pond-Rd-02536/home/103938665,CCIMLS,22002513,N,Y,41.5774086,-70.5629106
MLS Listing,,Single Family Residential,324 Cotuit Rd,Sandwich,MA,02563,377000,3,2.0,Sandwich,2000,46174,1981,3,189,,Active,,,http://www.redfin.com/MA/Sandwich/324-Cotuit-Rd-02563/home/77382197,CCIMLS,22002512,N,Y,41.708846,-70.4864012
MLS Listing,,Single Family Residential,32 Streeter Hill Rd,Falmouth,MA,02556,579900,3,2.5,North Falmouth,1843,20485,1981,3,315,23,Active,,,http://www.redfin.com/MA/North-Falmouth/32-Streeter-Hill-Rd-02556/home/132381804,MLS PIN,72650670,N,Y,41.6259761,-70.6182636
MLS Listing,,Single Family Residential,285 Olde Homestead Dr,Barnstable,MA,02648,619000,3,2.5,Marstons Mills,2231,25265,1988,3,277,,Active,,,http://www.redfin.com/MA/Marstons-Mills/285-Olde-Homestead-Dr-02648/home/111078487,CCIMLS,22002238,N,Y,41.664491,-70.4376821
MLS Listing,,Single Family Residential,65 Bayshore Dr,Mashpee,MA,02649,1075000,4,3.0,Mashpee,2734,22216,1993,3,393,,Active,,,http://www.redfin.com/MA/Mashpee/65-Bayshore-Dr-02649/home/133545898,CCIMLS,22002510,N,Y,41.5783904,-70.5038329
MLS Listing,,Single Family Residential,125 Piney Rd,Barnstable,MA,02635,1199000,3,3.0,Village of Cotuit,3730,24829,1999,3,321,,Active,,,http://www.redfin.com/MA/Cotuit/125-Piney-Rd-02635/home/111002193,MLS PIN,72650617,N,Y,41.6165886,-70.4399833
MLS Listing,,Single Family Residential,63 Cross St,Chatham,MA,02633,1595000,11,10.5,Chatham,5055,22651,1880,3,316,,Active,,,http://www.redfin.com/MA/Chatham/63-Cross-St-02633/home/131390487,CCIMLS,22002507,N,Y,41.6795403,-69.9589886
MLS Listing,,Single Family Residential,42 Boulder Brook Rd,Sandwich,MA,02537,769000,4,3.0,East Sandwich,2522,30056,1984,3,305,,Active,,,http://www.redfin.com/MA/East-Sandwich/42-Boulder-Brook-Rd-02537/home/131376336,MLS PIN,72650559,N,Y,41.7543494,-70.4573934
MLS Listing,,Single Family Residential,93 Dover Rd,Mashpee,MA,02649,340000,3,2.0,Mashpee,1632,,1993,3,208,,Active,,,http://www.redfin.com/MA/Mashpee/93-Dover-Rd-02649/home/104146189,MLS PIN,72650553,N,Y,41.6008287,-70.4904454
MLS Listing,,Single Family Residential,15 Happy Way,Harwich,MA,02645,400000,3,2.0,Harwich,1613,16553,1984,4,248,,Active,,,http://www.redfin.com/MA/Harwich/15-Happy-Way-02645/home/133027816,CCIMLS,22002497,N,Y,41.6968877,-70.0445571
MLS Listing,,Single Family Residential,5 Jasper Ln,Sandwich,MA,02644,389900,2,1.5,Forestdale,1444,21344,1985,4,270,,Active,,,http://www.redfin.com/MA/Forestdale/5-Jasper-Ln-02644/home/77370760,CCIMLS,22002495,N,Y,41.679209,-70.531955
MLS Listing,,Single Family Residential,36 Kendrick Rd,Chatham,MA,02650,675000,3,1.0,North Chatham,988,24829,1952,4,683,,Active,,,http://www.redfin.com/MA/Chatham/36-Kendrick-Rd-02650/home/77483639,CCIMLS,22002491,N,Y,41.7014311,-69.9591049
MLS Listing,,Single Family Residential,65 Stonehedge Dr,Barnstable,MA,02630,599000,3,2.0,Barnstable,1821,20473,1974,4,329,,Active,,,http://www.redfin.com/MA/Barnstable/65-Stonehedge-Rd-02630/home/77366734,CCIMLS,22002488,N,Y,41.6999664,-70.2918834
MLS Listing,,Single Family Residential,13 Rolling Hills Rd,Truro,MA,02666,2499000,5,4.0,Truro,1869,57064,1959,4,1337,,Active,,,http://www.redfin.com/MA/Truro/13-Rolling-Hills-Rd-02653/home/135285716,CCIMLS,22002487,N,Y,41.967427,-70.075925
MLS Listing,,Vacant Land,236 Tonset,Orleans,MA,02653,249000,,,Orleans,,60112,,4,,,Active,,,http://www.redfin.com/MA/Orleans/236-Tonset-Rd-02653/home/110309079,MLS PIN,72650245,N,Y,41.7985396,-69.9668899
MLS Listing,,Single Family Residential,12 Ocean Rd,Sandwich,MA,02537,424900,3,2.5,East Sandwich,1190,10454,1950,4,357,,Active,,,http://www.redfin.com/MA/East-Sandwich/12-Ocean-Rd-02537/home/134961963,MLS PIN,72650230,N,Y,41.748446,-70.442381
MLS Listing,,Single Family Residential,90 Seaview Ave #17,Yarmouth,MA,02664,142000,1,1.0,"South Yarmouth, Bass River",396,,1950,4,359,209,Active,,,http://www.redfin.com/MA/South-Yarmouth/90-Seaview-Ave-02664/unit-17/home/107571754,MLS PIN,72650221,N,Y,41.6458733,-70.2174367
MLS Listing,,Townhouse,27 B Conwell St Unit U2,Provincetown,MA,02657,699000,2,1.5,Provincetown,884,10890,1938,4,791,,Active,,,http://www.redfin.com/MA/Provincetown/27B-Conwell-St-02657/unit-U2/home/167961787,CCIMLS,22002485,N,Y,42.0566343,-70.1866562
MLS Listing,,Single Family Residential,120 Gullane Rd,Mashpee,MA,02649,896000,5,3.5,Willowbend,3115,23522,1988,4,288,210,Active,,,http://www.redfin.com/MA/Mashpee/120-Gullane-Rd-02649/home/77338829,MLS PIN,72650170,N,Y,41.6235182,-70.4561847
MLS Listing,,Single Family Residential,67 Statice Ln,Barnstable,MA,02601,539000,3,3.0,Barnstable,2579,16117,1990,4,209,750,Active,,,http://www.redfin.com/MA/Hyannis/67-Statice-Ln-02601/home/77475019,MLS PIN,72650110,N,Y,41.6721994,-70.3128892
MLS Listing,,Condo/Co-op,7 Great Hollow Rd #43,Truro,MA,02666,309000,4,1.0,Truro,752,,1966,4,411,214,Active,,,http://www.redfin.com/MA/TRURO/7-GREAT-HOLLOW-RD-02666/unit-43/home/135276704,MLS PIN,72650087,N,Y,42.017331,-70.083531
MLS Listing,,Single Family Residential,69 Fox Run,Barnstable,MA,02632,599900,3,4.0,Centerville,2178,37462,1984,4,275,,Active,,,http://www.redfin.com/MA/Centerville/69-Fox-Run-02632/home/111095969,CCIMLS,22002480,N,Y,41.6443258,-70.331582
MLS Listing,,Single Family Residential,430 Nellie,Wellfleet,MA,02667,779900,2,1.0,Wellfleet,672,4791,1955,4,1161,,Active,,,http://www.redfin.com/MA/Wellfleet/430-Nellie-Rd-02667/home/135360375,MLS PIN,72650015,N,Y,41.9228087,-69.9763195
MLS Listing,,Single Family Residential,5 Dorothys Way,Dennis,MA,02660,342000,3,1.0,Dennis,1256,14810,1968,4,272,,Active,,,http://www.redfin.com/MA/South-Dennis/5-Dorothys-Way-02660/home/77354962,MLS PIN,72649951,N,Y,41.7092833,-70.1730461
MLS Listing,,Condo/Co-op,33 W West Woods Cir Unit G,Yarmouth,MA,02675,445000,2,3.0,Yarmouth Port,1353,8712000,1997,4,329,,Active,,,http://www.redfin.com/MA/Yarmouth-Port/33-W-Woods-Cir-02675/unit-G/home/171491113,CCIMLS,22002461,N,Y,41.7165163,-70.2153813
MLS Listing,,Single Family Residential,17 Suncrest Dr,Falmouth,MA,02536,279000,2,1.0,Falmouth,640,7492,1954,4,436,,Active,,,http://www.redfin.com/MA/East-Falmouth/17-Suncrest-Dr-02536/home/77365587,MLS PIN,72649913,N,Y,41.5714344,-70.5725781
MLS Listing,,Single Family Residential,132 Pine Bluff Rd,Brewster,MA,02631,529000,4,2.0,Brewster,1390,16000,1965,4,381,,Active,,,http://www.redfin.com/MA/Brewster/132-Pine-Bluff-Rd-02631/home/131186055,MLS PIN,72649894,N,Y,41.7323065,-70.0922042
MLS Listing,,Single Family Residential,56 Tobisset St,Mashpee,MA,02649,435000,3,2.5,Santuit Woods,2700,15769,1988,4,161,,Active,,,http://www.redfin.com/MA/Mashpee/56-Tobisset-St-02649/home/133659265,MLS PIN,72649884,N,Y,41.6484217,-70.460787
MLS Listing,,Single Family Residential,3 Dove Cottage Rd,Falmouth,MA,02540,599000,4,2.5,Falmouth,1866,21280,1963,4,321,,Active,,,http://www.redfin.com/MA/Falmouth/3-Dove-Cottage-Rd-02540/home/77371724,MLS PIN,72649865,N,Y,41.5611593,-70.6053903
MLS Listing,,Single Family Residential,19 Vanbuskirk Way,Sandwich,MA,02563,499900,3,2.5,Fox Bottom Estates,2386,41382,1996,4,210,,Active,,,http://www.redfin.com/MA/Sandwich/19-Vanbuskirk-Way-02563/home/134818407,MLS PIN,72649857,N,Y,41.6907506,-70.4749656
MLS Listing,,Single Family Residential,62 Flicker Ln,Yarmouth,MA,02673,369000,2,2.5,West Yarmouth,1200,18295,1977,4,308,,Active,,,http://www.redfin.com/MA/West-Yarmouth/62-Flicker-Ln-02673/home/104021467,MLS PIN,72649846,N,Y,41.6821781,-70.2243924
MLS Listing,,Single Family Residential,58 Pleasant Lake Ave,Harwich,MA,02645,415000,3,1.5,Harwich,1470,7635,2002,4,282,,Active,,,http://www.redfin.com/MA/Harwich/58-Pleasant-Lake-Ave-02645/home/133046538,MLS PIN,72649837,N,Y,41.6910452,-70.0756438
MLS Listing,,Single Family Residential,30 Holly Ln,Yarmouth,MA,02664,314900,2,1.0,South Yarmouth,1008,8712,1960,4,312,,Active,,,http://www.redfin.com/MA/South-Yarmouth/30-Holly-Ln-02664/home/135867673,CCIMLS,22002349,N,Y,41.6492134,-70.2103935
MLS Listing,,Single Family Residential,15 Osborne Rd,Harwich,MA,02645,729000,5,2.0,Harwich,1937,9148,1959,5,376,,Active,,,http://www.redfin.com/MA/Harwich/15-Osborne-RD-02645/home/171482192,CCIMLS,22002466,N,Y,41.662454,-70.104594
MLS Listing,,Single Family Residential,19 Oak Ridge Rd,Falmouth,MA,02536,398500,4,1.5,Falmouth,1296,10000,1976,5,307,,Active,,,http://www.redfin.com/MA/Teaticket/19-Oak-Ridge-Rd-02536/home/132536186,MLS PIN,72649826,N,Y,41.5670999,-70.5813158
MLS Listing,,Multi-Family (2-4 Unit),35 Route 130,Sandwich,MA,02644,579000,4,3.0,Forestdale,2054,20473,1800,5,282,,Active,,,http://www.redfin.com/MA/Forestdale/35-MA-130-02644/home/134799900,CCIMLS,22002464,N,Y,41.6803045,-70.510769
MLS Listing,,Condo/Co-op,88 Kates Path #88,Yarmouth,MA,02675,410000,2,2.5,Yarmouth Port,1154,,1988,5,355,506,Active,,,http://www.redfin.com/MA/Yarmouth-Port/88-Kates-Path-02675/unit-88/home/171478382,MLS PIN,72649719,N,Y,41.7172085,-70.2107253
MLS Listing,,Townhouse,11 Vineyard Reach #11,Mashpee,MA,02649,1350000,4,4.5,New Seabury,3018,,2005,5,447,1405,Active,,,http://www.redfin.com/MA/Mashpee/11-Vineyard-Reach-02649/unit-11/home/137040336,MLS PIN,72649586,N,Y,41.5613689,-70.480347
MLS Listing,,Single Family Residential,218 Old Wharf Rd #242,Dennis,MA,02639,139900,2,1.0,Dennisport,628,,1950,5,223,,Active,,,http://www.redfin.com/MA/Dennis-Port/218-Old-Wharf-Rd-02639/unit-242/home/167185041,MLS PIN,72649532,N,Y,41.6521703,-70.1397607
MLS Listing,,Single Family Residential,80 Mattakese Rd #8,Yarmouth,MA,02673,449000,2,2.0,Yarmouth,1296,,1997,5,346,,Active,,,http://www.redfin.com/MA/West-Yarmouth/80-Mattakese-Rd-02673/unit-8/home/135840795,MLS PIN,72649513,N,Y,41.6432775,-70.2283208
MLS Listing,,Townhouse,850 W W Falmouth Hwy #20,Falmouth,MA,02540,549900,3,2.5,Falmouth,2023,,2011,5,272,,Active,,,http://www.redfin.com/MA/Falmouth/850-W-Falmouth-Hwy-02540/unit-20/home/77409397,CCIMLS,22002454,N,Y,41.6123686,-70.6265463
MLS Listing,,Single Family Residential,73 Rowland Dr,Chatham,MA,02650,470000,4,5.5,North Chatham,2450,34848,2017,5,192,,Active,,,http://www.redfin.com/MA/North-Chatham/73-Rowland-Dr-02650/home/83490094,CCIMLS,22002453,N,Y,41.7039265,-69.968131
MLS Listing,,Condo/Co-op,3546 Main St #9,Brewster,MA,02631,159000,1,1.0,Brewster,300,87000,1960,5,530,,Active,,,http://www.redfin.com/MA/Brewster/3546-Main-St-02631/unit-9/home/170016943,CCIMLS,22002452,N,Y,41.7754918,-70.0322411
MLS Listing,,Condo/Co-op,3558 Main St #3,Brewster,MA,02631,159000,1,1.0,Brewster,300,87000,1960,5,530,,Active,,,http://www.redfin.com/MA/Brewster/3558-Main-St-02631/unit-3/home/171474270,CCIMLS,22002451,N,Y,41.7757662,-70.032218
MLS Listing,,Single Family Residential,45 Cape Codder Rd,Falmouth,MA,02540,855000,3,3.0,Falmouth,2498,,1950,5,342,,Active,,,http://www.redfin.com/MA/Falmouth/45-Cape-Codder-Rd-02540/home/77339008,MLS PIN,72649471,N,Y,41.5703787,-70.6454963
MLS Listing,,Single Family Residential,10 Katelyn Hills Dr,Falmouth,MA,02540,795000,3,2.0,West Falmouth,1796,30492,1993,5,443,,Active,,,http://www.redfin.com/MA/Falmouth/10-Katelyn-Hills-Dr-02540/home/132356263,CCIMLS,22002344,N,Y,41.5957835,-70.6343664
MLS Listing,,Single Family Residential,75 Stoney Pond Cir,Barnstable,MA,02648,599000,3,3.5,Marstons Mills,2984,26572,1989,5,201,,Active,,,http://www.redfin.com/MA/Marstons-Mills/75-Stoney-Pond-Cir-02648/home/111008396,CCIMLS,22002449,N,Y,41.686753,-70.4163893
MLS Listing,,Single Family Residential,42 Lewis Bay Blvd,Yarmouth,MA,02673,999900,4,2.5,Yarmouth,2719,17424,2004,5,368,,Active,,,http://www.redfin.com/MA/West-Yarmouth/42-Lewis-Bay-Blvd-02673/home/77373559,MLS PIN,72649413,N,Y,41.641925,-70.2436926
MLS Listing,,Single Family Residential,23 Ocean Bluff Dr,Mashpee,MA,02649,5495000,4,5.0,The Bluffs,2930,18645,2002,5,1875,,Active,,,http://www.redfin.com/MA/Mashpee/23-Ocean-Bluff-Dr-02649/home/109292617,CCIMLS,22002447,N,Y,41.5672361,-70.4673417
MLS Listing,,Townhouse,135 Strawberry Mdw Unit 19-3,Falmouth,MA,02536,349000,2,2.5,East Falmouth,1343,,1976,5,260,479,Active,,,http://www.redfin.com/MA/Teaticket/135-Strawberry-Mdw-02536/unit-19-3/home/171472047,MLS PIN,72649409,N,Y,41.5744663,-70.5777659
MLS Listing,,Single Family Residential,117 Crows Pond Rd,Chatham,MA,02650,899000,3,2.5,North Chatham,2696,53977,1980,5,333,,Active,,,http://www.redfin.com/MA/North-Chatham/117-Crows-Pond-Rd-02650/home/131401582,MLS PIN,72649406,N,Y,41.711796,-69.9847405
MLS Listing,,Single Family Residential,51 Sunset Pt,Barnstable,MA,02655,16500000,5,6.0,Oyster Harbors,6740,434728,1918,5,2448,292,Active,,,http://www.redfin.com/MA/Osterville/51-Sunset-Pt-02655/home/162705743,MLS PIN,72649339,N,Y,41.6141287,-70.4215151
MLS Listing,,Condo/Co-op,59 Route 6A Unit 9-1,Dennis,MA,02638,350000,2,2.0,Dennis (Village),1180,2047320,1973,5,297,432,Active,,,http://www.redfin.com/MA/Dennis/59-Main-St-02638/unit-9-1/home/77412411,MLS PIN,72649328,N,Y,41.7198988,-70.1953603
MLS Listing,,Condo/Co-op,1 Belmont Rd Unit 7-523,Harwich,MA,02671,489000,2,2.0,West Harwich,1570,871200,1980,6,311,,Active,,,http://www.redfin.com/MA/West-Harwich/1-Belmont-Rd-02671/unit-7-523/home/171459021,CCIMLS,22002441,N,Y,41.6575793,-70.1175037
MLS Listing,,Single Family Residential,12 Bayberry Ln,Eastham,MA,02642,1598000,3,3.0,Eastham,2546,8712,2004,6,628,,Active,,,http://www.redfin.com/MA/Eastham/12-Bayberry-Ln-02642/home/77339298,MLS PIN,72649265,N,Y,41.8264718,-70.002885
MLS Listing,,Single Family Residential,35 Deep Wood Dr,Sandwich,MA,02563,460000,2,2.0,Country Farm Estates,1512,28749,2004,6,304,,Active,,,http://www.redfin.com/MA/Sandwich/35-Deep-Wood-DR-02563/home/171447943,MLS PIN,72649181,N,Y,41.7521548,-70.5145939
MLS Listing,,Single Family Residential,40 River Rd,Orleans,MA,02653,1425000,4,3.5,Orleans,3571,56628,1800,6,399,,Active,,,http://www.redfin.com/MA/Orleans/40-River-Rd-02653/home/171443332,MLS PIN,72649123,N,Y,41.779783,-69.9722256
MLS Listing,,Single Family Residential,24 Stub Toe Ln,Falmouth,MA,02536,275000,3,1.0,Falmouth,864,20055,1965,6,318,,Active,,,http://www.redfin.com/MA/East-Falmouth/24-Stub-Toe-Ln-02536/home/132386120,MLS PIN,72649112,N,Y,41.5993132,-70.5908551
MLS Listing,,Condo/Co-op,7 Great Hollow Rd #38,Truro,MA,02652,350000,2,1.0,North Truro,666,,1966,6,526,,Active,,,http://www.redfin.com/MA/North-Truro/7-Great-Hollow-Rd-02652/unit-38/home/171447158,CCIMLS,22002433,N,Y,42.0143561,-70.0761495
MLS Listing,,Single Family Residential,63 Little Island Rd,Falmouth,MA,02540,1600000,3,3.5,West Falmouth,2492,76155,1982,6,642,,Active,,,http://www.redfin.com/MA/Falmouth/63-Little-Island-Rd-02540/home/132516377,MLS PIN,72649081,N,Y,41.6116939,-70.6444739
MLS Listing,,Condo/Co-op,1 Belmont Rd #432,Harwich,MA,02671,629000,2,2.0,West Harwich,1570,871200,1980,6,401,751,Active,,,http://www.redfin.com/MA/West-Harwich/1-Belmont-Rd-02671/unit-432/home/77400908,MLS PIN,72649059,N,Y,41.6561371,-70.11749
MLS Listing,,Vacant Land,12 Brewster Ln,Sandwich,MA,02563,210000,,,Sandwich,,30056,,6,,,Active,,,http://www.redfin.com/MA/Sandwich/12-Brewster-LN-02563/home/170266092,CCIMLS,22002435,N,Y,41.750389,-70.475718
MLS Listing,,Single Family Residential,408 Old Wharf Rd,Dennis,MA,02639,899900,3,3.0,Dennisport,2317,14341,1986,6,388,,Active,,,http://www.redfin.com/MA/Dennis-Port/408-Old-Wharf-Rd-02639/home/131746759,MLS PIN,72648955,N,Y,41.6556793,-70.1268121
MLS Listing,,Single Family Residential,11 Columbus Ave,Yarmouth,MA,02673,775000,4,2.5,West Yarmouth,1648,8712,1950,6,470,,Active,,,http://www.redfin.com/MA/West-Yarmouth/11-Columbus-Ave-02673/home/135689143,MLS PIN,72648931,N,Y,41.6426776,-70.2504359
MLS Listing,,Condo/Co-op,3 Riverview Ave Unit F,Mashpee,MA,02649,368500,3,2.0,Mashpee,1400,,1981,6,263,,Active,,,http://www.redfin.com/MA/Mashpee/3-Riverview-Ave-02649/unit-F/home/133599315,CCIMLS,22002432,N,Y,41.617629,-70.451264
MLS Listing,,Single Family Residential,91 Hillside Dr,Dennis,MA,02641,875000,3,4.5,East Dennis,3692,30492,1990,6,237,,Active,,,http://www.redfin.com/MA/Dennis/91-Hillside-DR-02641/home/171444837,MLS PIN,72648885,N,Y,41.7428006,-70.1611106
MLS Listing,,Single Family Residential,302 Ames Way,Barnstable,MA,02632,425000,3,3.0,Barnstable,2590,,1980,6,164,,Active,,,http://www.redfin.com/MA/Centerville/302-Ames-Way-02632/home/77487636,MLS PIN,72648865,N,Y,41.6594878,-70.3669665
MLS Listing,,Condo/Co-op,32 Bradford St Unit Free-standing,Provincetown,MA,02657,1299000,3,3.0,Provincetown,1200,4529,2017,7,1083,,Active,,,http://www.redfin.com/MA/Provincetown/32-Bradford-St-02657/home/134665168,CCIMLS,22002427,N,Y,42.046721,-70.1933246
MLS Listing,,Single Family Residential,47 Ploughed Neck Rd,Sandwich,MA,02537,425900,3,2.0,East Sandwich,1361,5227,1957,7,313,,Active,,,http://www.redfin.com/MA/East-Sandwich/47-Ploughed-Neck-Rd-02537/home/77361931,MLS PIN,72648650,N,Y,41.7447731,-70.4416918
MLS Listing,,Single Family Residential,45 Pine Valley Rd,Barnstable,MA,02601,549000,4,2.5,Barnstable,2324,22216,1961,7,236,,Active,,,http://www.redfin.com/MA/Hyannis/45-Pine-Valley-Rd-02601/home/111091681,MLS PIN,72648613,N,Y,41.6510924,-70.3229099
MLS Listing,,Townhouse,159 Shad Hole Rd #4,Dennis,MA,02639,249900,2,1.0,Dennis,832,,1985,7,300,150,Active,,,http://www.redfin.com/MA/Dennis-Port/159-Shad-Hole-Rd-02639/unit-4/home/77406681,MLS PIN,72648598,N,Y,41.659924,-70.1380102
MLS Listing,,Townhouse,4 Bishops Park,Mashpee,MA,02649,389900,2,2.5,Mashpee,1906,,1994,7,205,,Active,,,http://www.redfin.com/MA/Mashpee/4-Bishops-Park-02649/home/133573618,CCIMLS,22002422,N,Y,41.6394919,-70.4606515
MLS Listing,,Townhouse,4 Bishops Park #4,Mashpee,MA,02649,389900,2,2.5,Mashpee (Village),1906,,1994,7,205,683,Active,,,http://www.redfin.com/MA/Mashpee/4-Bishops-Park-02649/unit-4/home/148029582,MLS PIN,72648565,N,Y,41.6378964,-70.4626384
MLS Listing,,Single Family Residential,13 Captain Doanes Way,Orleans,MA,02653,679000,4,2.0,Orleans,2016,22216,1950,7,337,,Active,,,http://www.redfin.com/MA/Orleans/13-Captain-Doanes-Way-02653/home/131585709,MLS PIN,72648562,N,Y,41.7953236,-69.9970695
MLS Listing,,Single Family Residential,22 Fourth St,Harwich,MA,02645,609000,4,2.0,Harwich,1621,10890,1973,7,376,,Active,,,http://www.redfin.com/MA/Harwich/22-4th-St-02645/home/133027207,CCIMLS,22002417,N,Y,41.7163474,-70.0781558
MLS Listing,,Single Family Residential,105 Seth Goodspeed Way,Barnstable,MA,02655,529900,3,2.0,Osterville,1748,23522,1983,7,303,,Active,,,http://www.redfin.com/MA/Osterville/105-Seth-Goodspeed-Way-02655/home/111066094,CCIMLS,22002416,N,Y,41.6562175,-70.3840767
MLS Listing,,Condo/Co-op,23 MARITIME Lndg #23,Dennis,MA,02638,699900,3,2.5,Dennis (Village),1816,,2020,7,385,300,Active,,,http://www.redfin.com/MA/Dennis/23-MARITIME-LNDG-02638/unit-23/home/171437570,MLS PIN,72648533,N,Y,41.734599,-70.193779
MLS Listing,,Single Family Residential,126 Diane Ave,Yarmouth,MA,02664,429900,3,2.0,South Yarmouth,1362,10890,1984,7,316,,Active,,,http://www.redfin.com/MA/South-Yarmouth/126-Diane-Ave-02664/home/135701491,CCIMLS,22002415,N,Y,41.6829753,-70.189348
MLS Listing,,Condo/Co-op,595 Main #19,Chatham,MA,02633,399900,2,1.0,Chatham (Village),919,,1999,7,435,200,Active,,,http://www.redfin.com/MA/Chatham/595-Main-St-02633/unit-19/home/171437173,MLS PIN,72648474,N,Y,41.681812,-69.9595469
MLS Listing,,Single Family Residential,76 Walton Heath Way,Mashpee,MA,02649,629000,3,2.5,New Seabury,1924,15682,1984,7,327,,Active,,,http://www.redfin.com/MA/Mashpee/76-Walton-Heath-Way-02649/home/88389866,CCIMLS,22002408,N,Y,41.5674936,-70.4884465
MLS Listing,,Single Family Residential,782 Mistic Dr,Barnstable,MA,02648,649900,4,3.5,Indian Lakes Estates,2370,48351,1987,7,274,29,Active,,,http://www.redfin.com/MA/Marstons-Mills/782-Mistic-Dr-02648/home/111091917,MLS PIN,72648454,N,Y,41.6603573,-70.4110893
MLS Listing,,Single Family Residential,159 Center St #6,Dennis,MA,02639,142500,1,1.0,Dennis,638,,1972,8,223,368,Active,,,http://www.redfin.com/MA/Dennis/159-Center-ST-02639/unit-6/home/171435633,MLS PIN,72648453,N,Y,41.663749,-70.124565
MLS Listing,,Condo/Co-op,190 Route 6A Unit 5D,Orleans,MA,02653,229000,2,1.0,Orleans,750,,1980,8,305,325,Active,,,http://www.redfin.com/MA/Orleans/190-MA-6A-02653/unit-5D/home/133953149,MLS PIN,72648438,N,Y,41.7818304,-69.9991235
MLS Listing,,Single Family Residential,110 Wamsutta Rd,Eastham,MA,02642,515000,3,3.0,Eastham,1624,20038,1996,8,317,,Active,,,http://www.redfin.com/MA/Eastham/110-Wamsutta-Rd-02642/home/132088957,MLS PIN,72648428,N,Y,41.8681143,-69.9915331
MLS Listing,,Single Family Residential,277 Pleasant Pines Ave,Barnstable,MA,02632,1525000,3,2.5,Barnstable,3215,19602,1983,8,474,,Active,,,http://www.redfin.com/MA/Centerville/277-Pleasant-Pines-Ave-02632/home/110974297,MLS PIN,72648426,N,Y,41.6816223,-70.3404167
MLS Listing,,Single Family Residential,23 Pawkannawkut Dr,Yarmouth,MA,02664,349900,2,2.0,South Yarmouth,1218,16117,1960,8,287,,Active,,,http://www.redfin.com/MA/South-Yarmouth/23-Pawkannawkut-Dr-02664/home/135846744,CCIMLS,22002407,N,Y,41.6491591,-70.2197416
MLS Listing,,Condo/Co-op,595 Main St #38,Chatham,MA,02633,1425000,3,3.0,Chatham,2706,,2015,8,527,750,Active,,,http://www.redfin.com/MA/Chatham/595-Main-St-02633/unit-38/home/131502919,MLS PIN,72648304,N,Y,41.6817043,-69.9592833
MLS Listing,,Condo/Co-op,595 Main St Unit X38,Chatham,MA,02633,1425000,3,3.0,Chatham,2706,,2015,8,527,,Active,,,http://www.redfin.com/MA/Chatham/595-Main-St-02633/unit-X38/home/171432381,CCIMLS,22002404,N,Y,41.681812,-69.9595469
MLS Listing,,Multi-Family (2-4 Unit),1619/1617 Orleans-Harwich Rd,Harwich,MA,02645,1295000,5,4.5,Harwich,4155,125452,1970,8,312,,Active,,,http://www.redfin.com/MA/Harwich/1617-Orleans-Harwich-Rd-02645/home/133045536,MLS PIN,72648267,N,Y,41.717255,-70.010818
MLS Listing,,Single Family Residential,10 Olivia Walker Way,Dennis,MA,02660,419000,3,2.0,Dennis,1144,12197,1983,8,366,,Active,,,http://www.redfin.com/MA/South-Dennis/10-Olivia-Walker-Way-02660/home/131708693,MLS PIN,72648268,N,Y,41.7083889,-70.176754
MLS Listing,,Single Family Residential,46 Country Cir,Dennis,MA,02660,389000,2,1.5,South Dennis,1092,,1976,8,356,,Active,,,http://www.redfin.com/MA/South-Dennis/46-Country-Cir-02660/home/131792580,CCIMLS,22002403,N,Y,41.7021228,-70.1663019
MLS Listing,,Condo/Co-op,225 N Shore Blvd Unit I,Sandwich,MA,02537,375000,1,1.0,Sandwich,459,,1955,8,817,40,Active,,,http://www.redfin.com/MA/East-Sandwich/225-N-Shore-Blvd-02537/unit-I/home/134902189,MLS PIN,72648236,N,Y,41.7487457,-70.4305528
MLS Listing,,Single Family Residential,1619 Orleans-Harwich Rd,Harwich,MA,02645,1295000,5,4.5,Harwich,4155,125452,1970,8,312,,Active,,,http://www.redfin.com/MA/Harwich/1619-Orleans-Harwich-Rd-02645/home/171415149,MLS PIN,72648222,N,Y,41.7172874,-70.011087
MLS Listing,,Condo/Co-op,593 Main St Unit X19,Chatham,MA,02633,399900,2,1.0,Chatham,919,,1999,8,435,,Active,,,http://www.redfin.com/MA/Chatham/593-Main-St-02633/unit-X19/home/171430248,CCIMLS,22002400,N,Y,41.6817542,-69.9592794
MLS Listing,,Single Family Residential,248 Long Pond Rd,Brewster,MA,02631,1100000,4,3.5,Brewster (Village),3303,60000,1989,8,333,,Active,,,http://www.redfin.com/MA/Brewster/248-Long-Pond-Rd-02631/home/131131002,MLS PIN,72648185,N,Y,41.7541286,-70.0806678
MLS Listing,,Single Family Residential,65 Hawes Ave,Barnstable,MA,02601,1575000,4,3.0,Barnstable,2070,13068,1920,8,761,,Active,,,http://www.redfin.com/MA/Hyannis/65-Hawes-Ave-02601/home/110977585,MLS PIN,72648135,N,Y,41.6358132,-70.2832096
MLS Listing,,Single Family Residential,124 State Highway Route 6,Wellfleet,MA,02667,1125000,3,3.5,Wellfleet,2470,129373,2012,8,455,,Active,,,http://www.redfin.com/MA/Wellfleet/124-US-6-02667/home/135405229,MLS PIN,72648102,N,Y,41.880979,-69.987225
MLS Listing,,Vacant Land,18 Seneca Ln,Sandwich,MA,02563,249000,,,Sandwich (Village),,25264,,8,,,Active,,,http://www.redfin.com/MA/Sandwich/18-Seneca-Ln-02563/home/77398950,MLS PIN,72648097,N,Y,41.7614648,-70.5126077
MLS Listing,,Townhouse,36 John Halls Cartpath Unit J,Yarmouth,MA,02675,449000,2,2.5,Yarmouth,1609,,1993,8,279,627,Active,,,http://www.redfin.com/MA/Yarmouth-Port/36-John-Hall-Cartway-02675/unit-J/home/171427471,MLS PIN,72648098,N,Y,41.7183957,-70.2082573
MLS Listing,,Condo/Co-op,230 Gosnold St Unit 2B,Barnstable,MA,02601,189900,1,1.0,Barnstable,528,,1951,8,360,289,Active,,,http://www.redfin.com/MA/Hyannis/230-Gosnold-St-02601/unit-2B/home/77517606,MLS PIN,72648080,N,Y,41.639654,-70.287927
MLS Listing,,Single Family Residential,37 Weir Rd,Yarmouth,MA,02675,285000,3,2.0,Yarmouth Port,1260,10890,1988,8,226,,Active,,,http://www.redfin.com/MA/Yarmouth-Port/37-Weir-Rd-02675/home/135791057,CCIMLS,22002393,N,Y,41.7030496,-70.2206718
MLS Listing,,Condo/Co-op,59 Roundhouse Rd #59,Bourne,MA,02532,219900,2,1.5,Monument Beach,1188,2925925,1985,8,185,396,Active,,,http://www.redfin.com/MA/Bourne/59-Round-House-Rd-02532/unit-59/home/171426513,MLS PIN,72648036,N,Y,41.717979,-70.595782
MLS Listing,,Condo/Co-op,1 Belmont Rd Unit 1-432,Harwich,MA,02671,629000,2,2.0,West Harwich,1570,871200,1980,9,401,,Active,,,http://www.redfin.com/MA/West-Harwich/1-Belmont-Rd-02671/unit-1-432/home/171426481,CCIMLS,22002385,N,Y,41.6575793,-70.1175037
MLS Listing,,Single Family Residential,49 Eagle Dr,Mashpee,MA,02649,775000,4,4.5,Willowbend,4091,26136,1998,9,189,325,Active,,,http://www.redfin.com/MA/Mashpee/49-Eagle-Dr-02649/home/133658256,MLS PIN,72647939,N,Y,41.6174168,-70.4675742
MLS Listing,,Single Family Residential,72 The Hts,Mashpee,MA,02649,749000,4,3.5,Willowbend,3160,20473,1995,9,237,322,Active,,,http://www.redfin.com/MA/Mashpee/72-The-Hts-02649/home/133630495,MLS PIN,72647938,N,Y,41.6160327,-70.4648314
MLS Listing,,Single Family Residential,26 Carolyn Dr,Chatham,MA,02633,409000,3,1.0,Chatham,1041,10100,1966,9,393,,Active,,,http://www.redfin.com/MA/Chatham/26-Carolyn-Dr-02633/home/131378573,MLS PIN,72647917,N,Y,41.6915858,-69.9776687
MLS Listing,,Single Family Residential,255 Shootflying Hill Rd,Barnstable,MA,02632,489000,3,2.5,Centerville,1979,60113,1997,9,247,,Active,,,http://www.redfin.com/MA/Centerville/255-Shootflying-Hill-Rd-02632/home/77368152,MLS PIN,72647872,N,Y,41.6835992,-70.3435321
MLS Listing,,Townhouse,9 Calico Cir #9,Dennis,MA,02660,470000,3,2.5,South Dennis,1368,,1983,10,344,350,Active,,,http://www.redfin.com/MA/Dennis/9-Calico-CIR-02660/unit-9/home/171422625,MLS PIN,72642807,N,Y,41.7212425,-70.1515342
MLS Listing,,Townhouse,9 Calico Cir Unit U-9,Dennis,MA,02660,470000,2,2.5,South Dennis,1368,,1983,10,344,,Active,,,http://www.redfin.com/MA/Dennis/9-Calico-CIR-02660/unit-U-9/home/171422610,CCIMLS,22002075,N,Y,41.684561,-70.131252
MLS Listing,,Single Family Residential,251 Red Brook Rd,Mashpee,MA,02649,549900,3,1.5,Mashpee,1714,36939,2020,10,321,,Active,,,http://www.redfin.com/MA/Mashpee/251-Red-Brook-Rd-02649/home/77342338,CCIMLS,22002380,N,Y,41.582718,-70.492582
MLS Listing,,Single Family Residential,89 Falmouth-Sandwich Rd,Mashpee,MA,02649,439900,3,2.0,Mashpee,1500,20473,2020,10,293,,Active,,,http://www.redfin.com/MA/Mashpee/89-Falmouth-Sandwich-Rd-02649/home/109610330,CCIMLS,22002379,N,Y,41.640787,-70.535656
MLS Listing,,Single Family Residential,39 Pine St,Falmouth,MA,02556,829900,3,2.5,North Falmouth,2024,35283,2020,10,410,,Active,,,http://www.redfin.com/MA/North-Falmouth/39-Pine-St-02556/home/132320673,MLS PIN,72647759,N,Y,41.646634,-70.617161
MLS Listing,,Single Family Residential,161 Kelley Ln,Chatham,MA,02633,3850000,5,4.5,West Chatham,4185,54412,2004,10,920,,Active,,,http://www.redfin.com/MA/Chatham/161-Kelley-Ln-02633/home/77483218,MLS PIN,72647458,N,Y,41.6807663,-69.9792971
MLS Listing,,Single Family Residential,197 Diane Ave,Yarmouth,MA,02664,419000,3,2.0,Yarmouth,1458,15246,1976,10,287,10,Active,,,http://www.redfin.com/MA/South-Yarmouth/197-Diane-Ave-02664/home/135821840,MLS PIN,72641729,N,Y,41.6867269,-70.1909526
MLS Listing,,Single Family Residential,46 Sandpiper Hill Rd,Wellfleet,MA,02667,1595000,4,3.0,Wellfleet,2456,8756,2004,11,649,,Active,,,http://www.redfin.com/MA/Wellfleet/46-Sandpiper-Hill-Rd-02667/home/135401929,CCIMLS,22002370,N,Y,41.929135,-70.022234
MLS Listing,,Single Family Residential,94 Hillside Dr,Dennis,MA,02641,875000,3,4.5,East Dennis,3692,30492,1990,11,237,,Active,,,http://www.redfin.com/MA/Dennis/94-Hillside-DR-02641/home/171420241,CCIMLS,22002376,N,Y,41.739943,-70.166876
MLS Listing,,Single Family Residential,41 Captain Wright,Yarmouth,MA,02664,339000,3,1.5,Captain's Village,1288,13068,1979,11,263,,Active,,,http://www.redfin.com/MA/South-Yarmouth/41-Captain-Wright-Rd-02664/home/135876410,MLS PIN,72647688,N,Y,41.674496,-70.2139979
MLS Listing,,Single Family Residential,22 Strawberry Ln,Dennis,MA,02660,525000,3,2.0,Dennis,1396,18731,1997,11,376,,Active,,,http://www.redfin.com/MA/South-Dennis/22-Strawberry-Ln-02660/home/131821007,MLS PIN,72647664,N,Y,41.7283006,-70.1601158
MLS Listing,,Single Family Residential,14 Squanto Dr,Chatham,MA,02633,1495000,6,4.5,Chatham,2665,,1945,11,561,221,Active,,,http://www.redfin.com/MA/Chatham/14-Squanto-Dr-02633/home/109079099,MLS PIN,72647643,N,Y,41.67557,-69.98549
MLS Listing,,Single Family Residential,138 Kompass Dr,Falmouth,MA,02536,279900,2,1.5,East Falmouth,1155,20100,1978,11,242,,Active,,,http://www.redfin.com/MA/East-Falmouth/138-Kompass-Dr-02536/home/113378257,MLS PIN,72647635,N,Y,41.6109599,-70.5333101
MLS Listing,,Single Family Residential,310 Glacier Hills Rd,Eastham,MA,02642,529000,3,2.0,Eastham,1800,20909,1979,11,294,,Active,,,http://www.redfin.com/MA/Eastham/310-Glacier-Hills-Rd-02642/home/132110244,CCIMLS,22002369,N,Y,41.8506314,-69.9730627
MLS Listing,,Townhouse,202 Admiralty Hts,Yarmouth,MA,02675,315000,2,1.5,Yarmouth Port,1180,,1986,11,267,,Active,,,http://www.redfin.com/MA/Yarmouth-Port/202-Admiralty-Hts-02675/home/135802766,CCIMLS,22002366,N,Y,41.7116588,-70.2098846
MLS Listing,,Single Family Residential,13 Gay Rd,Yarmouth,MA,02664,329000,2,1.0,South Yarmouth,840,10018,1955,11,392,,Active,,,http://www.redfin.com/MA/South-Yarmouth/13-Gay-Rd-02664/home/134160538,MLS PIN,72647565,N,Y,41.6513153,-70.2107772
MLS Listing,,Condo/Co-op,100 Alden St Unit U219,Provincetown,MA,02657,349000,1,1.0,Provincetown,656,115870,2008,11,532,,Active,,,http://www.redfin.com/MA/Provincetown/100-Alden-St-02657/unit-U219/home/171415695,CCIMLS,22002363,N,Y,42.0542718,-70.1905108
MLS Listing,,Vacant Land,375 Sandwich,Falmouth,MA,02653,2000000,,,Falmouth,,1254528,,11,,,Active,,,http://www.redfin.com/MA/Orleans/375-Sandwich-02653/home/171415250,MLS PIN,72647481,N,Y,41.7794574,-69.9607913
MLS Listing,,Vacant Land,375 Sandwich Rd,Falmouth,MA,02540,2000000,,,Falmouth,,1254528,,11,,,Active,,,http://www.redfin.com/MA/Falmouth/375-Sandwich-Rd-02540/home/148337929,CCIMLS,22002357,N,Y,41.586797,-70.584128
MLS Listing,,Single Family Residential,38 Nantucket Ave,Yarmouth,MA,02664,395000,3,1.5,Bass River,1664,14355,1952,11,237,,Active,,,http://www.redfin.com/MA/South-Yarmouth/38-Nantucket-Ave-02664/home/93407700,MLS PIN,72647420,N,Y,41.6499376,-70.2115097
MLS Listing,,Single Family Residential,24 Parliament Dr,Chatham,MA,02650,965000,3,2.5,Chatham,2070,20499,1991,11,466,,Active,,,http://www.redfin.com/MA/North-Chatham/24-Parliament-Dr-02650/home/77391643,MLS PIN,72647383,N,Y,41.6996821,-69.9732023
MLS Listing,,Single Family Residential,1 Shoal Ln,Orleans,MA,02653,899000,5,4.5,Quanset Harbor Club,3563,87120,1971,11,252,,Active,,,http://www.redfin.com/MA/Orleans/1-Shoal-Ln-02653/home/133949780,CCIMLS,22002351,N,Y,41.7419979,-69.9896256
MLS Listing,,Vacant Land,0 Annasis Rd,Harwich,MA,02645,549900,,,Harwich,,261360,,11,,,Active,,,http://www.redfin.com/MA/Harwich/0-Annasis-RD-02645/home/168666910,MLS PIN,72647370,N,Y,41.694652,-70.105306
MLS Listing,,Single Family Residential,15 Sam Hollow Rd,Wellfleet,MA,02667,775000,3,2.5,Wellfleet,2164,34412,2020,11,358,,Active,,,http://www.redfin.com/MA/Wellfleet/15-Sam-Hollow-RD-02667/home/169200209,MLS PIN,72647347,N,Y,41.925526,-70.008205
MLS Listing,,Single Family Residential,8 Powers Ln,Yarmouth,MA,02673,1650000,3,2.5,West Yarmouth,2084,6534,1990,11,792,225,Active,,,http://www.redfin.com/MA/West-Yarmouth/8-Powers-Ln-02673/home/135730606,MLS PIN,72647302,N,Y,41.6336346,-70.2329497
MLS Listing,,Single Family Residential,6 Buckingham Rd,Dennis,MA,02641,449500,3,2.0,East Dennis,1652,15246,1978,11,272,,Active,,,http://www.redfin.com/MA/Dennis/6-Buckingham-RD-02641/home/171411789,CCIMLS,22002342,N,Y,41.737099,-70.169777
MLS Listing,,Single Family Residential,194 Union St,Yarmouth,MA,02675,359000,3,2.0,Yarmouth,1296,14375,1965,12,277,,Active,,,http://www.redfin.com/MA/Yarmouth-Port/194-Union-St-02675/home/171391867,MLS PIN,72647113,N,Y,41.6962806,-70.221195
MLS Listing,,Single Family Residential,479 Stony Hill Rd,Chatham,MA,02650,1895000,4,3.5,Chatham,2958,24058,2020,12,641,,Active,,,http://www.redfin.com/MA/North-Chatham/479-Stony-Hill-Rd-02650/home/131345473,MLS PIN,72647047,N,Y,41.7021092,-69.9560341
MLS Listing,,Single Family Residential,22 Periwinkle Way,Harwich,MA,02645,269900,3,1.0,Harwich,960,13939,1971,12,281,,Active,,,http://www.redfin.com/MA/Harwich/22-Periwinkle-Way-02645/home/133022727,CCIMLS,22002337,N,Y,41.6810031,-70.0440105
MLS Listing,,Single Family Residential,163 County Rd,Bourne,MA,02532,589900,5,3.5,Bourne,3013,27443,1691,12,196,,Active,,,http://www.redfin.com/MA/Bourne/163-County-Rd-02532/home/77345799,CCIMLS,22002336,N,Y,41.7300429,-70.6002548
MLS Listing,,Condo/Co-op,78 Center St Unit 15-Jan,Dennis,MA,02639,188650,2,1.5,Dennis Port,844,,1971,12,224,,Active,,,http://www.redfin.com/MA/Dennis/78-Center-ST-02639/unit-15-Jan/home/171406902,CCIMLS,22002335,N,Y,41.664611,-70.129772
MLS Listing,,Condo/Co-op,14 MARITIME Lndg #14,Dennis,MA,02638,679900,2,2.5,Dennis (Village),1816,,2020,12,374,300,Active,,,http://www.redfin.com/MA/Dennis/14-MARITIME-LNDG-02638/unit-14/home/171406598,MLS PIN,72646943,N,Y,41.734722,-70.193929
MLS Listing,,Vacant Land,1028 Queen Anne Rd,Harwich,MA,02645,230000,,,East Harwich,,64883,,12,,,Active,,,http://www.redfin.com/MA/Harwich/1028-Queen-Anne-RD-02645/home/171406477,CCIMLS,22002331,N,Y,41.700461,-70.024811
MLS Listing,,Single Family Residential,70 King Phillip Rd,Wellfleet,MA,02667,549900,3,1.5,Wellfleet,990,12632,1955,12,555,,Active,,,http://www.redfin.com/MA/Wellfleet/70-King-Phillip-Rd-02667/home/135383255,MLS PIN,72646914,N,Y,41.915737,-70.023632
MLS Listing,,Vacant Land,0 Oak St,Harwich,MA,02645,225000,,,Harwich,,128066,,12,,,Active,,,http://www.redfin.com/MA/Harwich/Oak-St-02645/home/77342294,CCIMLS,22002329,N,Y,41.726192,-70.017924
MLS Listing,,Single Family Residential,2 Saturn Ln,Yarmouth,MA,02664,329900,3,1.0,Bass River,1196,11761,1965,13,276,,Active,,,http://www.redfin.com/MA/South-Yarmouth/2-Saturn-Ln-02664/home/135852050,MLS PIN,72646832,N,Y,41.6628941,-70.2053706
MLS Listing,,Single Family Residential,25 Falmouth Sandwich Rd,Sandwich,MA,02644,524900,4,3.0,Forestdale,2015,19602,2020,13,260,,Active,,,http://www.redfin.com/MA/Forestdale/25-Falmouth-Sandwich-Rd-02644/home/134822357,MLS PIN,72646789,N,Y,41.670135,-70.51528
MLS Listing,,Single Family Residential,29 Lower County,Dennis,MA,02670,1200000,3,3.0,West Dennis,2388,45302,1981,13,503,,Active,,,http://www.redfin.com/MA/West-Dennis/29-Lower-County-Rd-02670/home/166890414,MLS PIN,72646673,N,Y,41.6554374,-70.1670461
MLS Listing,,Single Family Residential,81 Route 137,Harwich,MA,02645,368600,3,1.0,Harwich,1008,25620,1974,13,366,,Active,,,http://www.redfin.com/MA/Harwich/81-MA-137-02645/home/133013249,MLS PIN,72646641,N,Y,41.7043896,-70.0193076
MLS Listing,,Single Family Residential,11 Surrey Ln,Falmouth,MA,02536,419900,3,2.0,Falmouth,1642,22750,1976,13,256,,Active,,,http://www.redfin.com/MA/East-Falmouth/11-Surrey-Ln-02536/home/77486916,MLS PIN,72646638,N,Y,41.5917934,-70.5316412
MLS Listing,,Townhouse,129 FALMOUTH HEIGHTS Rd #3,Falmouth,MA,02540,679000,2,2.0,Falmouth Heights,1788,43560,1985,13,380,600,Active,,,http://www.redfin.com/MA/Falmouth/129-Falmouth-Heights-Rd-02540/unit-3/home/171394524,MLS PIN,72646461,N,Y,41.5478665,-70.6002264
MLS Listing,,Condo/Co-op,370 Wilson Ave Unit C,Wellfleet,MA,02667,599000,3,1.0,Wellfleet,801,111514,1947,14,748,,Active,,,http://www.redfin.com/MA/Wellfleet/370-Wilson-Ave-02667/unit-C/home/135364911,CCIMLS,22002318,N,Y,41.9220605,-69.9783085
MLS Listing,,Single Family Residential,128 BLACKSMITH SHOP Rd,Falmouth,MA,02574,619000,3,2.5,West Falmouth,1506,33149,1998,14,411,,Active,,,http://www.redfin.com/MA/Falmouth/128-Blacksmith-Shop-Rd-02540/home/132331750,CCIMLS,22002317,N,Y,41.6019506,-70.6282553
MLS Listing,,Single Family Residential,8 Lavender Ln,Yarmouth,MA,02673,369000,3,1.5,Yarmouth,1056,22651,1975,14,349,,Active,,,http://www.redfin.com/MA/West-Yarmouth/8-Lavender-Ln-02673/home/135795942,MLS PIN,72646309,N,Y,41.6646189,-70.2442042
MLS Listing,,Single Family Residential,228 Bearses Way,Barnstable,MA,02601,190000,3,1.0,Barnstable,1104,7405,1951,14,172,,Active,,,http://www.redfin.com/MA/Hyannis/228-Bearses-Way-02601/home/111059617,MLS PIN,72646282,N,Y,41.6576025,-70.2934052
MLS Listing,,Single Family Residential,33 Marlboro Rd,Brewster,MA,02631,575000,3,2.5,Brewster,3006,18532,1974,14,191,,Active,,,http://www.redfin.com/MA/Brewster/33-Marlboro-Rd-02631/home/131150097,MLS PIN,72646248,N,Y,41.7381665,-70.0466622
MLS Listing,,Single Family Residential,106 Upper County Rd,Dennis,MA,02639,279900,2,1.0,Dennis,644,60983,1950,14,435,,Active,,,http://www.redfin.com/MA/Dennis-Port/106-Upper-County-Rd-02639/home/171387505,MLS PIN,72646232,N,Y,41.6710131,-70.1331962
MLS Listing,,Single Family Residential,219 Pond,Barnstable,MA,02655,299999,2,1.0,Barnstable,828,21344,1920,14,362,,Active,,,http://www.redfin.com/MA/Osterville/219-Pond-St-02655/home/77476248,MLS PIN,72646144,N,Y,41.6371364,-70.3847741
MLS Listing,,Single Family Residential,84 Witchwood Rd,Yarmouth,MA,02664,379000,3,1.0,Yarmouth,1008,13939,1962,14,376,,Active,,,http://www.redfin.com/MA/South-Yarmouth/84-Witchwood-Rd-02664/home/135813494,MLS PIN,72646116,N,Y,41.6750219,-70.2017429
MLS Listing,,Condo/Co-op,242 Old Wharf Rd Unit B4,Dennis,MA,02639,274900,2,1.0,Dennis Port,528,,1950,14,521,,Active,,,http://www.redfin.com/MA/Dennis-Port/242-Old-Wharf-Rd-02639/unit-B4/home/131804972,CCIMLS,22002307,N,Y,41.6526662,-70.1382806
MLS Listing,,Single Family Residential,85 Nautical Ln,Yarmouth,MA,02664,459900,3,2.5,Yarmouth,1415,19166,2000,14,325,,Active,,,http://www.redfin.com/MA/South-Yarmouth/85-Nautical-Ln-02664/home/135715548,MLS PIN,72646071,N,Y,41.6829227,-70.2147188
MLS Listing,,Single Family Residential,105 Bayview St,Yarmouth,MA,02673,389900,3,1.5,Yarmouth,1056,10454,1977,14,369,,Active,,,http://www.redfin.com/MA/West-Yarmouth/105-Bayview-St-02673/home/135748716,MLS PIN,72646067,N,Y,41.6510583,-70.2724325
MLS Listing,,Single Family Residential,30 Salt Marsh Ln,Yarmouth,MA,02673,399000,3,2.0,West Yarmouth,1096,10018,1950,14,364,,Active,,,http://www.redfin.com/MA/West-Yarmouth/30-Salt-Marsh-Ln-02673/home/135664071,MLS PIN,72646065,N,Y,41.6411386,-70.2326125
MLS Listing,,Single Family Residential,56 Williams Rd,Yarmouth,MA,02673,499000,3,2.0,Yarmouth,1248,6534,1952,14,400,,Active,,,http://www.redfin.com/MA/West-Yarmouth/56-Williams-Rd-02673/home/101704676,MLS PIN,72646063,N,Y,41.6497544,-70.250808
MLS Listing,,Condo/Co-op,26 MARITIME Lndg #26,Dennis,MA,02638,699900,3,2.5,Dennis (Village),1867,,2020,14,375,300,Active,,,http://www.redfin.com/MA/Dennis/26-MARITIME-LNDG-02638/unit-26/home/171386154,MLS PIN,72646021,N,Y,41.734649,-70.194003
MLS Listing,,Condo/Co-op,7 Seaport Ln #7,Harwich,MA,02646,825000,3,2.5,Harwich,2736,,2001,14,302,867,Active,,,http://www.redfin.com/MA/Harwich-Port/7-Seaport-Ln-02646/unit-7/home/137784624,MLS PIN,72645978,N,Y,41.6701009,-70.0832347
MLS Listing,,Single Family Residential,82 Long Pond Dr,Harwich,MA,02645,475000,4,2.0,Harwich,1473,10300,1964,14,322,,Active,,,http://www.redfin.com/MA/Harwich/82-Long-Pond-Dr-02645/home/77383107,MLS PIN,72645974,N,Y,41.7156324,-70.075795
MLS Listing,,Single Family Residential,7 Niagara Ln,Yarmouth,MA,02673,309000,2,1.0,West Yarmouth,816,11326,1970,15,379,,Active,,,http://www.redfin.com/MA/West-Yarmouth/7-Niagara-Ln-02673/home/135862675,MLS PIN,72645906,N,Y,41.645782,-70.2260201
MLS Listing,,Single Family Residential,56 Wilmas,Harwich,MA,02645,560000,3,2.0,Harwich,1873,40075,1985,15,299,,Active,,,http://www.redfin.com/MA/Harwich/56-Wilmas-Way-02645/home/132951601,MLS PIN,72645852,N,Y,41.7273638,-70.0169582
MLS Listing,,Single Family Residential,9 Victory Ln,Yarmouth,MA,02664,190000,2,1.0,Yarmouth,1040,,1955,15,183,,Active,,,http://www.redfin.com/MA/South-Yarmouth/9-Victory-Ln-02664/home/135878891,MLS PIN,72645837,N,Y,41.6644231,-70.2015568
MLS Listing,,Condo/Co-op,7 Seaport Ln Unit 7-7,Harwich,MA,02646,825000,3,2.5,Harwich Port,2736,5,2001,15,302,,Active,,,http://www.redfin.com/MA/Harwich-Port/7-Seaport-Ln-02646/unit-7-7/home/171379947,CCIMLS,22002292,N,Y,41.6701009,-70.0832347
MLS Listing,,Single Family Residential,75 Furlong Way,Barnstable,MA,02635,579000,3,1.5,Barnstable,2048,20038,1976,15,283,,Active,,,http://www.redfin.com/MA/Cotuit/75-Furlong-Way-02635/home/111092143,MLS PIN,72645738,N,Y,41.6300848,-70.4500017
MLS Listing,,Condo/Co-op,36 Old Colony Way #3022,Orleans,MA,02653,200000,2,2.0,Orleans,1040,,1971,15,192,,Active,,,http://www.redfin.com/MA/Orleans/36-Old-Colony-Way-02653/unit-3022/home/171379168,CCIMLS,22002288,N,Y,41.7865503,-69.9958704
MLS Listing,,Townhouse,36 John Hall Cartway,Yarmouth,MA,02675,449000,2,2.5,Yarmouth,1609,,1993,15,279,,Active,,,http://www.redfin.com/MA/Yarmouth-Port/36-John-Hall-Cartway-02675/home/135717953,CCIMLS,22002227,N,Y,41.7183957,-70.2082573
MLS Listing,,Condo/Co-op,12 Candlewood Ln Unit 2-3,Dennis,MA,02639,170000,2,1.5,Dennis,980,,1973,15,173,397,Active,,,http://www.redfin.com/MA/Dennis-Port/12-Candlewood-Ln-02639/unit-2-3/home/77500434,MLS PIN,72645687,N,Y,41.6689372,-70.1303066
MLS Listing,,Vacant Land,55 Ridge Rd,Eastham,MA,02642,180000,,,Eastham,,20038,,15,,,Active,,,http://www.redfin.com/MA/Eastham/55-Ridge-Rd-02642/home/132085364,MLS PIN,72645655,N,Y,41.837069,-69.995607
MLS Listing,,Single Family Residential,2 Captain Teach Rd,Sandwich,MA,02537,320000,3,2.0,Sandwich,1736,,1970,15,184,,Active,,,http://www.redfin.com/MA/East-Sandwich/2-Captain-Teach-Rd-02537/home/134938349,MLS PIN,72645643,N,Y,41.7377328,-70.4177841
MLS Listing,,Single Family Residential,331 Union,Yarmouth,MA,02664,1895000,3,2.0,South Yarmouth,2030,6098,1950,15,933,,Active,,,http://www.redfin.com/MA/South-Yarmouth/331-Union-St-02664/home/135784271,MLS PIN,72645642,N,Y,41.6649172,-70.1837901
MLS Listing,,Single Family Residential,1085 Phinney's Ln,Barnstable,MA,02601,349900,3,1.5,Barnstable,1248,16117,1960,15,280,,Active,,,http://www.redfin.com/MA/Barnstable/1085-Phinney-s-LN-02601/home/171378370,CCIMLS,22002258,N,Y,41.672727,-70.315916
MLS Listing,,Townhouse,481 Buck Island Rd Unit 17D,Yarmouth,MA,02673,229900,2,2.0,Yarmouth,1239,,1988,16,186,459,Active,,,http://www.redfin.com/MA/West-Yarmouth/481-Buck-Island-Rd-02673/unit-17D/home/135806215,MLS PIN,72645587,N,Y,41.6578246,-70.2519822
MLS Listing,,Single Family Residential,82 Glenneagle,Mashpee,MA,02649,945000,3,2.0,New Seabury,1800,,1983,16,525,,Active,,,http://www.redfin.com/MA/Mashpee/82-Glenneagle-Dr-02649/home/77486451,MLS PIN,72645508,N,Y,41.5686736,-70.4763602
MLS Listing,,Single Family Residential,31 Black Valley Rd,Barnstable,MA,02632,375000,3,2.0,Barnstable,1594,17860,1988,16,235,,Active,,,http://www.redfin.com/MA/Centerville/31-Black-Valley-Rd-02632/home/111065928,MLS PIN,72645480,N,Y,41.6621379,-70.3728249
MLS Listing,,Condo/Co-op,148 Shore Rd #2,Truro,MA,02666,279000,2,1.0,Truro,635,,1966,17,439,280,Active,,,http://www.redfin.com/MA/Truro/148-Shore-Rd-02666/unit-2/home/135273684,MLS PIN,72645427,N,Y,42.0434214,-70.1016375
MLS Listing,,Single Family Residential,39 Mill Pond Rd,Yarmouth,MA,02673,339000,5,3.0,Yarmouth,1443,6534,1960,17,235,,Active,,,http://www.redfin.com/MA/West-Yarmouth/39-Mill-Pond-Rd-02673/home/77361451,MLS PIN,72645400,N,Y,41.6591744,-70.2584399
MLS Listing,,Condo/Co-op,72 Highview #72,Sandwich,MA,02563,249000,2,2.0,Sandwich,1062,,1978,17,234,297,Active,,,http://www.redfin.com/MA/Sandwich/72-Highview-Dr-02563/unit-72/home/138386194,MLS PIN,72645369,N,Y,41.7437561,-70.5056794
MLS Listing,,Condo/Co-op,132 Shore Rd #22,Truro,MA,02652,175000,1,1.0,North Truro,440,105415,1986,17,398,,Active,,,http://www.redfin.com/MA/North-Truro/132-Shore-Rd-02652/unit-22/home/171374372,CCIMLS,22002274,N,Y,42.0426944,-70.099672
MLS Listing,,Single Family Residential,159 Sheaffer Rd,Barnstable,MA,02632,449500,3,2.0,Centerville,1704,15246,1972,17,264,,Active,,,http://www.redfin.com/MA/Centerville/159-Sheaffer-Rd-02632/home/111059313,MLS PIN,72645329,N,Y,41.6690074,-70.3709651
MLS Listing,,Townhouse,481 Buck Island Rd Unit 17DC,Yarmouth,MA,02673,229900,2,2.0,West Yarmouth,1239,,1988,17,186,,Active,,,http://www.redfin.com/MA/West-Yarmouth/481-Buck-Island-Rd-02673/unit-17DC/home/171373885,CCIMLS,22002272,N,Y,41.6578246,-70.2519822
MLS Listing,,Single Family Residential,75 Pleasant St,Bourne,MA,02561,549000,4,2.0,Sagamore,1890,24394,1955,17,290,,Active,,,http://www.redfin.com/MA/Bourne/75-Pleasant-St-02536/home/148394067,CCIMLS,22002271,N,Y,41.772125,-70.532138
MLS Listing,,Single Family Residential,274 Lower County Rd,Harwich,MA,02646,675000,4,2.0,Harwich,1616,13400,1953,17,418,,Active,,,http://www.redfin.com/MA/Harwich-Port/274-Lower-County-Rd-02646/home/171373148,MLS PIN,72645271,N,Y,41.6664961,-70.0965303
MLS Listing,,Single Family Residential,14 Old Forge Rd,Sandwich,MA,02563,353900,3,1.5,Lakefield Farms,968,20038,1978,17,366,,Active,,,http://www.redfin.com/MA/Sandwich/14-Old-Forge-Rd-02563/home/112996979,MLS PIN,72641182,N,Y,41.6911192,-70.4321963
MLS Listing,,Single Family Residential,51 Hyannis Ave,Barnstable,MA,02601,1280000,4,3.0,Hyannis Port,2590,22216,1920,18,494,,Active,,,http://www.redfin.com/MA/Hyannis/51-Hyannis-Ave-02601/home/111001970,CCIMLS,22002168,N,Y,41.6346094,-70.2992645
MLS Listing,,Single Family Residential,30 Salt Marsh Ln Unit A,Yarmouth,MA,02673,399000,3,2.0,West Yarmouth,1096,10019,1950,18,364,,Active,,,http://www.redfin.com/MA/West-Yarmouth/30-Salt-Marsh-Ln-02673/unit-A/home/135640498,CCIMLS,22002125,N,Y,41.6411386,-70.2326125
MLS Listing,,Townhouse,720 Pitchers Way Unit C25,Barnstable,MA,02601,224900,2,1.5,Hyannis,1236,,1988,18,182,496,Active,,,http://www.redfin.com/MA/Hyannis/720-Pitchers-Way-02601/unit-C25/home/171368735,MLS PIN,72645175,N,Y,41.661037,-70.308144
MLS Listing,,Single Family Residential,28 Monomoy Cir,Chatham,MA,02633,1195000,3,4.0,Chatham,2924,20286,1973,18,409,,Active,,,http://www.redfin.com/MA/Chatham/28-Monomoy-Cir-02633/home/131378706,MLS PIN,72645141,N,Y,41.6702619,-69.9758542
MLS Listing,,Single Family Residential,19 Mill Rd,Harwich,MA,02646,2999900,3,3.0,Harwich,3271,25700,1988,18,917,83,Active,,,http://www.redfin.com/MA/Harwich-Port/19-Mill-Rd-02646/home/77371685,MLS PIN,72645122,N,Y,41.6659429,-70.0618277
MLS Listing,,Single Family Residential,291 Menauhant Rd,Falmouth,MA,02536,899900,3,2.0,Acapesket,1928,14989,1964,18,467,,Active,,,http://www.redfin.com/MA/East-Falmouth/291-Menauhant-Rd-02536/home/132479168,MLS PIN,72645083,N,Y,41.5510759,-70.5750414
MLS Listing,,Single Family Residential,296 Commercial St,Provincetown,MA,02657,1100000,11,5.5,Provincetown,1639,3485,1800,18,671,,Active,,,http://www.redfin.com/MA/Provincetown/296-Commercial-St-02657/home/171367210,CCIMLS,22002263,N,Y,42.0517456,-70.1863034
MLS Listing,,Single Family Residential,24 Jills Path,Yarmouth,MA,02673,470000,3,3.0,West Yarmouth,2290,20038,1984,18,205,,Active,,,http://www.redfin.com/MA/West-Yarmouth/24-Jills-Path-02673/home/135803794,MLS PIN,72645066,N,Y,41.6737716,-70.2287175
MLS Listing,,Single Family Residential,26 Sears Pt,Brewster,MA,02631,720000,4,4.0,Sears Point Association,2673,1306800,1985,18,269,950,Active,,,http://www.redfin.com/MA/Brewster/26-Sears-Point-Dr-02631/home/131182564,MLS PIN,72645031,N,Y,41.7624457,-70.0896088
MLS Listing,,Single Family Residential,31 Sunbeam Ln,Barnstable,MA,02601,525000,3,2.5,Cobblestone Landing,1913,11761,1999,18,274,,Active,,,http://www.redfin.com/MA/Hyannis/31-Sunbeam-Ln-02601/home/111002175,CCIMLS,22002257,N,Y,41.6703849,-70.3119592
MLS Listing,,Condo/Co-op,18 West Rd #310,Orleans,MA,02653,140300,2,2.0,Orleans,1104,,2005,18,127,,Active,,,http://www.redfin.com/MA/Orleans/18-West-Rd-02653/unit-310/home/133942257,CCIMLS,22002148,N,Y,41.7827085,-70.0012571
MLS Listing,,Single Family Residential,203 Williston,Bourne,MA,02562,399000,4,2.0,Bourne,1620,13112,1964,18,246,,Active,,,http://www.redfin.com/MA/Sagamore-Beach/203-Williston-Rd-02562/home/113980002,MLS PIN,72645005,N,Y,41.7879236,-70.5290266
MLS Listing,,Single Family Residential,20 Beach Rd,Eastham,MA,02642,998000,3,1.5,Eastham,784,30492,1985,18,1273,,Active,,,http://www.redfin.com/MA/Eastham/20-Beach-Rd-02642/home/77472796,CCIMLS,22002252,N,Y,41.8060894,-70.0026989
MLS Listing,,Single Family Residential,70 & 76 Old State Hwy,Eastham,MA,02642,2595000,11,8.5,Eastham,4914,1,1863,18,528,,Active,,,http://www.redfin.com/MA/Eastham/76-Old-State-Hwy-02642/home/132099979,MLS PIN,72644934,N,Y,41.7971346,-69.9814838
MLS Listing,,Vacant Land,340 Old Orchard Rd,Eastham,MA,02642,150000,,,Eastham,,22216,,18,,,Active,,,http://www.redfin.com/MA/Eastham/340-Old-Orchard-Rd-02642/home/132082114,CCIMLS,22002251,N,Y,41.8479249,-69.979095
MLS Listing,,Single Family Residential,26 Spoondrift Cir,Mashpee,MA,02649,1895000,4,4.5,New Seabury,3811,14244,1970,19,497,52,Active,,,http://www.redfin.com/MA/Mashpee/26-Spoondrift-Cir-02649/home/133547386,MLS PIN,72644794,N,Y,41.5798154,-70.4632509
MLS Listing,,Condo/Co-op,122 Shore Rd #4,Truro,MA,02666,334500,2,1.0,Truro,400,,1948,19,836,75,Active,,,http://www.redfin.com/MA/Truro/122-Shore-Rd-02666/unit-4/home/135272332,MLS PIN,72644754,N,Y,42.0418364,-70.0954419
MLS Listing,,Condo/Co-op,331 Commercial St Unit U7,Provincetown,MA,02657,799000,1,1.0,Provincetown,408,11326,1900,19,1958,,Active,,,http://www.redfin.com/MA/Provincetown/331-Commercial-St-02657/unit-U7/home/169291649,CCIMLS,22002245,N,Y,42.0522612,-70.1849993
MLS Listing,,Single Family Residential,8 Hatch Rd,Truro,MA,02666,1295000,5,4.5,Truro,2652,104108,1987,19,488,,Active,,,http://www.redfin.com/MA/Truro/8-Hatch-Rd-02666/home/77339176,CCIMLS,22002239,N,Y,41.9899222,-70.0493371
MLS Listing,,Vacant Land,6 Jillian Dr,Bourne,MA,02532,209900,,,Bourne,,45014,,19,,,Active,,,http://www.redfin.com/MA/Buzzards-Bay/6-Jillian-Dr-02532/home/77528440,MLS PIN,72644565,N,Y,41.772834,-70.5502999
MLS Listing,,Single Family Residential,94 Commercial St,Provincetown,MA,02657,2150000,5,2.0,Provincetown,1898,3920,1890,19,1133,,Active,,,http://www.redfin.com/MA/Provincetown/94-Commercial-St-02657/home/134690474,MLS PIN,72644538,N,Y,42.0443429,-70.1922632
MLS Listing,,Single Family Residential,80 Bonnie Ln,Falmouth,MA,02536,575000,4,2.5,East Falmouth,3000,50225,2001,19,192,,Active,,,http://www.redfin.com/MA/East-Falmouth/80-Bonnie-Ln-02536/home/132466443,CCIMLS,22002235,N,Y,41.5943013,-70.520195
MLS Listing,,Single Family Residential,27 Tabor Rd,Sandwich,MA,02644,395000,3,2.0,Forestdale,1308,12632,1985,19,302,,Active,,,http://www.redfin.com/MA/Forestdale/27-Tabor-Rd-02644/home/134891039,MLS PIN,72644486,N,Y,41.6765951,-70.517499
MLS Listing,,Single Family Residential,112 Pawkannawkut,Yarmouth,MA,02664,350000,2,1.0,South Yarmouth,992,9148,1960,19,353,,Active,,,http://www.redfin.com/MA/South-Yarmouth/112-Pawkannawkut-Dr-02664/home/135854563,MLS PIN,72644465,N,Y,41.644832,-70.21923
MLS Listing,,Single Family Residential,115 Taunton Ave,Dennis,MA,02638,1435000,3,3.0,Dennis,2500,72745,1950,19,574,,Active,,,http://www.redfin.com/MA/Dennis/115-Taunton-Ave-02638/home/77379373,CCIMLS,22002220,N,Y,41.7376599,-70.222253
MLS Listing,,Single Family Residential,89 Uncle Rolf Rd,Dennis,MA,02639,399900,3,1.5,Dennis,732,6970,1960,20,546,,Active,,,http://www.redfin.com/MA/Dennis-Port/89-Uncle-Rolf-Rd-02639/home/77491333,MLS PIN,72644423,N,Y,41.6521068,-70.1457433
MLS Listing,,Vacant Land,32 Parker Rd,Falmouth,MA,02536,105000,,,East Falmouth,,28122,,20,,,Active,,,http://www.redfin.com/MA/East-Falmouth/32-Parker-Rd-02536/home/132600414,MLS PIN,72644395,N,Y,41.586058,-70.568546
MLS Listing,,Multi-Family (2-4 Unit),16 Gardiner Ln Unit A and B,Yarmouth,MA,02664,450000,6,2.0,South Yarmouth,1848,6534,1952,20,244,,Active,,,http://www.redfin.com/MA/South-Yarmouth/16-Gardiner-Ln-02664/unit-A-and-B/home/171353906,CCIMLS,22002230,N,Y,41.64729,-70.208817
MLS Listing,,Single Family Residential,24 Heathberry Rd,Dennis,MA,02638,1600000,4,3.5,Dennis,2568,32234,1987,20,623,,Active,,,http://www.redfin.com/MA/Dennis/24-Heathberry-Rd-02638/home/131681744,MLS PIN,72644355,N,Y,41.7432037,-70.210347
MLS Listing,,Single Family Residential,4 Shady Dr,Harwich,MA,02645,399900,1,1.5,Harwich,1800,10019,2020,20,222,,Active,,,http://www.redfin.com/MA/Harwich/4-Shady-Dr-02645/home/114058101,CCIMLS,22002180,N,Y,41.7003259,-70.035302
MLS Listing,,Single Family Residential,125 Holder Ln,Barnstable,MA,02648,499900,4,2.5,Barnstable,2676,,1990,20,187,,Active,,,http://www.redfin.com/MA/Barnstable/125-Holder-LN-02648/home/171331990,MLS PIN,72644277,N,Y,41.682218,-70.370372
MLS Listing,,Condo/Co-op,122 Shore Rd #4,Truro,MA,02652,334500,2,1.0,North Truro,400,228454,1948,20,836,,Active,,,http://www.redfin.com/MA/North-Truro/122-Shore-Rd-02652/unit-4/home/171347321,CCIMLS,22002081,N,Y,42.0433331,-70.1022311
MLS Listing,,Single Family Residential,20 Nuthatch Way,Dennis,MA,02641,459900,2,2.0,Quivet Neck,1167,,1980,20,394,560,Active,,,http://www.redfin.com/MA/Dennis/20-Nuthatch-WAY-02641/unit-C10/home/170011188,MLS PIN,72644205,N,Y,41.743463,-70.160439
MLS Listing,,Condo/Co-op,87 Chilton Ln,Brewster,MA,02631,235000,2,2.0,Brewster,935,,1984,20,251,,Active,,,http://www.redfin.com/MA/Brewster/87-Chilton-Ln-02631/home/77520101,CCIMLS,22002221,N,Y,41.7585031,-70.0544742
MLS Listing,,Mobile/Manufactured Home,300 Nathan Ellis Hwy #53,Mashpee,MA,02649,74900,2,1.0,Mashpee,690,,2001,20,109,402,Active,,,http://www.redfin.com/MA/Mashpee/300-Nathan-Ellis-Hwy-02649/unit-53/home/171344955,MLS PIN,72644166,N,Y,41.6140163,-70.5138119
MLS Listing,,Townhouse,3 Keel De Sac #3,Falmouth,MA,02540,679000,2,2.0,Falmouth Heights,1788,43560,1985,20,380,600,Active,,,http://www.redfin.com/MA/Falmouth/3-Keel-De-Sac-02540/unit-3/home/137380739,MLS PIN,72644069,N,Y,41.54766,-70.600661
MLS Listing,,Single Family Residential,25 Pasture Rd,Bourne,MA,02532,5989000,6,5.5,Scraggy Neck,5800,45738,2020,20,1033,,Active,,,http://www.redfin.com/MA/Bourne/25-Pasture-Rd-02532/home/113254638,MLS PIN,72644017,N,Y,41.6618184,-70.6395691
MLS Listing,,Condo/Co-op,72 The Hts #72,Mashpee,MA,02649,749000,4,3.5,Mashpee,3160,,1995,21,237,,Active,,,http://www.redfin.com/MA/Mashpee/72-The-Hts-02649/unit-72/home/171337876,CCIMLS,22002211,N,Y,41.6160327,-70.4648314
MLS Listing,,Single Family Residential,231 Seaway Rd,Brewster,MA,02631,749000,3,1.0,Brewster,824,5850,1946,21,909,21,Active,,,http://www.redfin.com/MA/Brewster/231-Seaway-Rd-02631/home/131183666,MLS PIN,72643974,N,Y,41.77276,-70.060918
MLS Listing,,Single Family Residential,107 Soundview Ave,Chatham,MA,02633,539900,2,1.0,Chatham,802,7500,1960,21,673,,Active,,,http://www.redfin.com/MA/Chatham/107-Soundview-Ave-02633/home/131340667,MLS PIN,72643937,N,Y,41.6777877,-70.0111079
MLS Listing,,Single Family Residential,89 Spice Ln,Barnstable,MA,02655,689000,4,2.0,Barnstable,1054,13504,1966,21,654,,Active,,,http://www.redfin.com/MA/Osterville/89-Spice-Ln-02655/home/96739630,MLS PIN,72643860,N,Y,41.6331865,-70.3730574
MLS Listing,,Single Family Residential,1326 Main St,Barnstable,MA,02635,1395000,5,2.5,Cotuit,2668,44431,1811,21,523,,Active,,,http://www.redfin.com/MA/Cotuit/1326-Main-St-02635/home/110983150,MLS PIN,72643846,N,Y,41.6063524,-70.4393092
MLS Listing,,Single Family Residential,8 Village Green Rd,Bourne,MA,02562,459000,3,2.5,Bourne,1885,15159,2003,21,244,,Active,,,http://www.redfin.com/MA/Bourne/8-Village-Green-RD-02562/home/171328200,MLS PIN,72643806,N,Y,41.7888419,-70.532443
MLS Listing,,Single Family Residential,23 Pleasant Park Dr,Mashpee,MA,02649,679900,3,2.0,Mashpee,2000,24394,2019,21,340,,Active,,,http://www.redfin.com/MA/Mashpee/23-Pleasant-Park-Dr-02649/home/133712384,CCIMLS,22002203,N,Y,41.621215,-70.456998
MLS Listing,,Condo/Co-op,49 Lower County Rd,Dennis,MA,02639,70000,1,1.0,Dennis,253,,1953,21,277,,Active,,,http://www.redfin.com/MA/Dennis/49-Lower-County-Rd-02639/unit-2-2/home/128813078,CCIMLS,22002202,N,Y,41.6552515,-70.151378
MLS Listing,,Single Family Residential,49 Lower County Rd #1,Dennis,MA,02639,70000,1,1.0,Dennisport,253,253,1953,21,277,105,Active,,,http://www.redfin.com/MA/Dennis-Port/49-Lower-County-Rd-02639/unit-1/home/171325309,MLS PIN,72643740,N,Y,41.6552516,-70.1513714
MLS Listing,,Single Family Residential,41 Windshore Dr,Barnstable,MA,02601,392900,4,2.5,Hyannis,1568,19602,1978,22,251,,Active,,,http://www.redfin.com/MA/Hyannis/41-Windshore-Dr-02601/home/111066172,MLS PIN,72643620,N,Y,41.6611377,-70.3067511
MLS Listing,,Condo/Co-op,61 Old Wharf Rd #38,Dennis,MA,02639,850000,3,2.0,Dennis,1454,,2015,22,585,500,Active,,,http://www.redfin.com/MA/Dennis-Port/61-Old-Wharf-Rd-02639/unit-38/home/77465369,MLS PIN,72643589,N,Y,41.6522027,-70.1495461
MLS Listing,,Single Family Residential,42 Birch Dr,Harwich,MA,02645,599900,4,3.0,Harwich,2278,41382,1987,22,263,,Active,,,http://www.redfin.com/MA/Harwich/42-Birch-Dr-02645/home/132999277,CCIMLS,22002197,N,Y,41.7122745,-70.101275
MLS Listing,,Single Family Residential,31 Paine Ave,Barnstable,MA,02601,285000,3,1.0,Hyannis,864,23087,1958,22,330,,Active,,,http://www.redfin.com/MA/Hyannis/31-Paine-Ave-02601/home/111012726,CCIMLS,22002194,N,Y,41.6420569,-70.2983344
MLS Listing,,Single Family Residential,592 Poponessett Rd,Barnstable,MA,02635,1295000,3,3.5,Cotuit,2697,37026,1947,22,480,,Active,,,http://www.redfin.com/MA/Cotuit/592-Poponessett-Rd-02635/home/111099942,MLS PIN,72643445,N,Y,41.6101608,-70.4540927
MLS Listing,,Single Family Residential,45 Easterly Dr,Sandwich,MA,02537,492500,4,2.0,Sandwich,2369,,1995,22,208,,Active,,,http://www.redfin.com/MA/East-Sandwich/45-Easterly-Dr-02537/home/134932038,MLS PIN,72643328,N,Y,41.6994744,-70.4772434
MLS Listing,,Single Family Residential,45 Christopher Way,Harwich,MA,02645,462000,3,2.5,Harwich,1921,14810,1987,22,240,,Active,,,http://www.redfin.com/MA/Harwich/45-Christopher-Way-02645/home/133045594,CCIMLS,22002163,N,Y,41.7173405,-70.007956
MLS Listing,,Single Family Residential,5 Great Hills Dr,Sandwich,MA,02537,595900,3,3.5,East Sandwich,2930,35719,1975,23,203,,Active,,,http://www.redfin.com/MA/East-Sandwich/5-Great-Hills-Dr-02537/home/105682885,CCIMLS,22002183,N,Y,41.7199241,-70.4157849
MLS Listing,,Single Family Residential,262 Greenwood Ave,Barnstable,MA,02601,589900,3,1.5,Barnstable,1475,10890,1950,23,400,,Active,,,http://www.redfin.com/MA/Hyannis/262-Greenwood-Ave-02601/home/111002075,MLS PIN,72643206,N,Y,41.6380443,-70.2983344
MLS Listing,,Single Family Residential,91 Tracy Ln,Brewster,MA,02631,529900,2,1.5,Brewster,1964,15000,1976,23,270,,Active,,,http://www.redfin.com/MA/Brewster/91-Tracy-Ln-02631/home/131142164,MLS PIN,72643192,N,Y,41.7304009,-70.0872268
MLS Listing,,Single Family Residential,479 Ocean St,Barnstable,MA,02601,519000,3,1.5,Hyannis,1580,15681,1910,24,328,,Active,,,http://www.redfin.com/MA/Hyannis/479-Ocean-St-02601/home/111072159,MLS PIN,72643143,N,Y,41.640685,-70.279873
MLS Listing,,Single Family Residential,6 Grissom Ln,Bourne,MA,02532,299900,3,2.0,Monument Beach,1144,14070,1985,24,262,,Active,,,http://www.redfin.com/MA/Bourne/6-Grissom-Ln-02532/home/130857929,MLS PIN,72643136,N,Y,41.7150418,-70.5981867
MLS Listing,,Single Family Residential,3 Pine Tree Dr,Barnstable,MA,02630,349000,2,1.0,Barnstable,856,,1970,24,408,,Active,,,http://www.redfin.com/MA/Barnstable/3-Pine-Tree-DR-02630/home/168901944,MLS PIN,72643116,N,Y,41.650325,-70.348987
MLS Listing,,Single Family Residential,14 Tara Ter,Bourne,MA,02352,484339,4,2.5,Bourne,2356,25047,1985,25,206,,Active,,,http://www.redfin.com/MA/Bourne/14-Tara-Ter-02532/home/130858078,MLS PIN,72642927,N,Y,41.7129366,-70.5917265
MLS Listing,,Single Family Residential,43 Tomahawk Dr,Barnstable,MA,02632,415000,4,2.0,Centerville,1680,15682,1967,25,247,,Active,,,http://www.redfin.com/MA/Centerville/43-Tomahawk-Dr-02632/home/111066339,MLS PIN,72642890,N,Y,41.6598224,-70.360178
MLS Listing,,Single Family Residential,19 Folger Ln,Dennis,MA,02670,375000,3,1.0,West Dennis,1008,7405,1964,25,372,,Active,,,http://www.redfin.com/MA/West-Dennis/19-Folger-Ln-02670/home/77471895,MLS PIN,72642829,N,Y,41.6590589,-70.1625809
MLS Listing,,Single Family Residential,34 Clifford,Chatham,MA,02633,549900,3,2.0,Chatham,2145,20436,1971,25,256,,Active,,,http://www.redfin.com/MA/Chatham/34-Clifford-Way-02633/home/131319088,MLS PIN,72642771,N,Y,41.6971771,-70.0005123
MLS Listing,,Single Family Residential,192 Gifford St,Falmouth,MA,02540,320000,1,1.0,Falmouth,392,12632,1940,25,816,,Active,,,http://www.redfin.com/MA/Falmouth/192-Gifford-St-02540/home/132336500,CCIMLS,22002158,N,Y,41.5576219,-70.6107
MLS Listing,,Single Family Residential,47 Goose Point Rd,Barnstable,MA,02632,450000,3,2.0,Centerville,1640,21780,1975,25,274,,Active,,,http://www.redfin.com/MA/Centerville/47-Goose-Point-Rd-02632/home/111072499,MLS PIN,72642743,N,Y,41.6716464,-70.3207477
MLS Listing,,Single Family Residential,,Wellfleet,MA,02667,400000,5,1.0,,1229,128938,1942,25,325,,Active,,,http://www.redfin.com/MA/Wellfleet/Undisclosed-address-02667/home/135377021,CCIMLS,22002119,N,Y,41.9555052,-70.0315541
MLS Listing,,Single Family Residential,217 Swan River Rd,Dennis,MA,02670,352000,2,1.0,West Dennis,880,8276,1960,25,400,,Active,,,http://www.redfin.com/MA/West-Dennis/217-Swan-River-Rd-02670/home/131858189,MLS PIN,72642722,N,Y,41.665504,-70.1494179
MLS Listing,,Single Family Residential,47 Crosswinds Way,Falmouth,MA,02536,645000,4,2.5,East Falmouth,2128,50965,2016,25,303,,Active,,,http://www.redfin.com/MA/East-Falmouth/47-Crosswinds-Way-02536/home/132547277,CCIMLS,22001658,N,Y,41.5932996,-70.5406004
MLS Listing,,Single Family Residential,10 Arbor Way,Barnstable,MA,02601,425000,4,2.0,Barnstable,2113,12632,1963,26,201,,Active,,,http://www.redfin.com/MA/Hyannis/10-Arbor-Way-02601/home/110973954,MLS PIN,72642663,N,Y,41.6452338,-70.3013338
MLS Listing,,Single Family Residential,71 Dillingham,Sandwich,MA,02563,395000,2,2.0,Town Neck,1142,5227,1952,26,346,,Active,,,http://www.redfin.com/MA/Sandwich/71-Dillingham-Ave-02563/home/134869534,MLS PIN,72642598,N,Y,41.767261,-70.4922118
MLS Listing,,Single Family Residential,363 Wings Neck Rd,Bourne,MA,02559,875000,5,4.0,Wings Neck Trust,2804,91476,1967,26,312,125,Active,,,http://www.redfin.com/MA/Pocasset/363-Wings-Neck-Rd-02559/home/130809816,MLS PIN,72642560,N,Y,41.6861364,-70.6477501
MLS Listing,,Vacant Land,215 Herring River Rd,Wellfleet,MA,02667,229000,,,Wellfleet,,52272,,26,,,Active,,,http://www.redfin.com/MA/Wellfleet/215-Herring-River-Rd-02667/home/109483312,CCIMLS,22002141,N,Y,41.956496,-70.037297
MLS Listing,,Single Family Residential,533 Currier Rd,Falmouth,MA,02536,779000,6,5.0,Falmouth,4300,40392,1979,26,181,,Active,,,http://www.redfin.com/MA/East-Falmouth/533-Currier-Rd-02536/home/77358038,MLS PIN,72642454,N,Y,41.6310085,-70.5386947
MLS Listing,,Vacant Land,105 Hopkins Dr,Wellfleet,MA,02667,289000,,,Wellfleet,,37462,,26,,,Active,,,http://www.redfin.com/MA/Wellfleet/105-Hopkins-Dr-02667/home/135397691,CCIMLS,22002138,N,Y,41.9402029,-70.046392
MLS Listing,,Condo/Co-op,28 Seacrest Village Ln #28,Chatham,MA,02633,1150000,2,2.5,Chatham,2114,,2011,26,544,550,Active,,,http://www.redfin.com/MA/Chatham/28-Seacrest-Village-Ln-02633/unit-28/home/171298858,MLS PIN,72642370,N,Y,41.6848788,-69.982757
MLS Listing,,Single Family Residential,131 North Shr,Sandwich,MA,02537,749000,2,1.5,Sandwich,1110,,2016,26,675,113,Active,,,http://www.redfin.com/MA/East-Sandwich/131-N-Shore-Blvd-02537/unit-10/home/77478734,MLS PIN,72642351,N,Y,41.7507248,-70.4391065
MLS Listing,,Condo/Co-op,131 N Shore Blvd #10,Sandwich,MA,02563,749000,2,1.5,Sandwich,1102,,2016,26,680,,Active,,,http://www.redfin.com/MA/Sandwich/131-N-Shore-BLVD-02563/unit-10/home/171298464,CCIMLS,22002097,N,Y,41.751068,-70.438803
MLS Listing,,Townhouse,28 Seacrest Village Ln,Chatham,MA,02633,1150000,2,2.5,Seacrest Village,2114,,2011,27,544,,Active,,,http://www.redfin.com/MA/Chatham/Seacrest-Village-Ln-02633/home/77374967,CCIMLS,22002134,N,Y,41.68474,-69.983475
MLS Listing,,Condo/Co-op,212 Kates Path,Yarmouth,MA,02675,249900,2,2.0,Yarmouth Port,1164,,1989,27,215,,Active,,,http://www.redfin.com/MA/Yarmouth-Port/212-Kates-Path-02675/home/135802562,CCIMLS,22002129,N,Y,41.7168142,-70.2104865
MLS Listing,,Condo/Co-op,18 Landing Ln #18,Brewster,MA,02631,379000,2,2.0,Brewster,1066,,1974,27,356,712,Active,,,http://www.redfin.com/MA/Brewster/18-Landing-Ln-02631/unit-18/home/168892440,MLS PIN,72642144,N,Y,41.7686645,-70.0624208
MLS Listing,,Single Family Residential,32 Rainbow Dr #58,Barnstable,MA,02632,599000,3,3.0,Centerville,2181,,1985,27,275,,Active,,,http://www.redfin.com/MA/Centerville/32-Rainbow-Dr-02632/unit-58/home/171294276,MLS PIN,72642121,N,Y,41.6508048,-70.3585972
MLS Listing,,Single Family Residential,24 Briar Spring Rd,Orleans,MA,02653,985000,3,3.5,Orleans,2173,34848,1979,27,453,,Active,,,http://www.redfin.com/MA/Orleans/24-Briar-Spring-Rd-02653/home/133952864,CCIMLS,22002117,N,Y,41.7739672,-69.9556619
MLS Listing,,Single Family Residential,70 Middle Rd,Chatham,MA,02659,469000,3,2.0,South Chatham,1598,11295,1986,27,293,,Active,,,http://www.redfin.com/MA/South-Chatham/70-Middle-Rd-02659/home/77377541,MLS PIN,72642110,N,Y,41.689208,-70.0178621
MLS Listing,,Single Family Residential,37 Hemlock Ln,Dennis,MA,02660,359900,3,1.5,South Dennis,1152,7405,1972,27,312,,Active,,,http://www.redfin.com/MA/South-Dennis/37-Hemlock-Ln-02660/home/131749530,CCIMLS,22002109,N,Y,41.7005577,-70.151511
MLS Listing,,Single Family Residential,50 Leland Rd,Brewster,MA,02631,419900,3,1.5,Brewster,1456,36200,1983,27,288,,Active,,,http://www.redfin.com/MA/Brewster/50-Leland-Rd-02631/home/77477417,MLS PIN,72641938,N,Y,41.7399069,-70.1168462
MLS Listing,,Single Family Residential,15 Shore Rd,Dennis,MA,02670,849000,4,2.0,West Dennis,1848,13939,1956,28,459,,Active,,,http://www.redfin.com/MA/West-Dennis/15-Shore-Rd-02670/home/131676959,CCIMLS,22002098,N,Y,41.6565076,-70.1799297
MLS Listing,,Single Family Residential,261 Old County Rd,Sandwich,MA,02537,745000,3,2.5,East Sandwich,2292,53579,2018,28,325,,Active,,,http://www.redfin.com/MA/East-Sandwich/261-Old-County-Rd-02537/home/77399050,MLS PIN,72641640,N,Y,41.723069,-70.403296
MLS Listing,,Multi-Family (2-4 Unit),2 Riverside Ter,Harwich,MA,02671,449900,4,2.0,West Harwich,1482,13224,1965,28,304,,Active,,,http://www.redfin.com/MA/West-Harwich/2-Riverside-Ter-02671/home/132953557,MLS PIN,72641598,N,Y,41.6661151,-70.1146251
MLS Listing,,Vacant Land,0 McKenna Ridge Rd,Falmouth,MA,02536,210000,,,East Falmouth,,20255,,29,,,Active,,,http://www.redfin.com/MA/Falmouth/McKenna-Ridge-Dr-02536/home/112240965,MLS PIN,72641548,N,Y,41.597448,-70.613248
MLS Listing,,Single Family Residential,112 Freeboard Ln,Yarmouth,MA,02675,384000,4,2.0,Yarmouth,1460,10019,1982,29,263,,Active,,,http://www.redfin.com/MA/Yarmouth-Port/112-Freeboard-Ln-02675/home/135791227,MLS PIN,72641535,N,Y,41.7026437,-70.2142072
MLS Listing,,Single Family Residential,18 Weeks Pond Dr,Sandwich,MA,02644,425000,3,2.0,Sandwich,2400,22651,1997,29,177,,Active,,,http://www.redfin.com/MA/Forestdale/18-Weeks-Pond-Dr-02644/home/134959941,MLS PIN,72641532,N,Y,41.677631,-70.5259588
MLS Listing,,Single Family Residential,35 Scargo Hill Rd,Dennis,MA,02638,499000,3,2.0,Dennis (Village),2194,22651,1985,29,227,,Active,,,http://www.redfin.com/MA/Dennis/35-Scargo-Hill-Rd-02638/home/131737570,MLS PIN,72641507,N,Y,41.7358096,-70.1865807
MLS Listing,,Single Family Residential,142 Captain Chase Rd,Dennis,MA,02639,379000,3,1.0,Dennis Port,808,9583,1956,29,469,,Active,,,http://www.redfin.com/MA/Dennis-Port/142-Captain-Chase-Rd-02639/home/131785044,CCIMLS,22002089,N,Y,41.6550785,-70.1430921
MLS Listing,,Single Family Residential,83 Snake Pond Rd,Sandwich,MA,02644,529900,3,3.5,Sandwich,2500,29621,1986,29,212,,Active,,,http://www.redfin.com/MA/Forestdale/83-Snake-Pond-Rd-02644/home/77478838,MLS PIN,72641487,N,Y,41.6812871,-70.5256334
MLS Listing,,Vacant Land,30 Kaits Way,Eastham,MA,02642,436000,,,Eastham,,130680,,29,,,Active,,,http://www.redfin.com/MA/Eastham/30-Kaits-Way-02642/home/132110980,CCIMLS,22002078,N,Y,41.865673,-69.97649
MLS Listing,,Townhouse,22 Center Pl #2,Orleans,MA,02653,479900,2,2.5,Orleans,1549,77101,1981,29,310,,Active,,,http://www.redfin.com/MA/Orleans/22-Center-Pl-02653/unit-2/home/77412482,CCIMLS,22002088,N,Y,41.7856505,-69.991526
MLS Listing,,Single Family Residential,15 Pine View Dr,Brewster,MA,02631,559000,4,3.5,Brewster,2173,15055,1973,29,257,,Active,,,http://www.redfin.com/MA/Brewster/15-Pine-View-Dr-02631/home/131195169,MLS PIN,72641461,N,Y,41.7191585,-70.1331381
MLS Listing,,Single Family Residential,8 Hersey St,Yarmouth,MA,02664,399999,3,1.5,Yarmouth,1092,12197,1970,29,366,,Active,,,http://www.redfin.com/MA/South-Yarmouth/8-Hersey-St-02664/home/135717250,MLS PIN,72641379,N,Y,41.6901223,-70.1802088
MLS Listing,,Single Family Residential,10 Sheeps Pasture Pt,Orleans,MA,02653,3650000,5,3.0,Orleans,4000,24394,2001,29,913,,Active,,,http://www.redfin.com/MA/Orleans/10-Sheep-s-Pasture-Pt-02653/home/133912506,MLS PIN,72641335,N,Y,41.8000853,-69.9500554
MLS Listing,,Vacant Land,0 Gayle Ave,Falmouth,MA,02540,430000,,,Falmouth,,220111,,29,,,Active,,,http://www.redfin.com/MA/Falmouth/Gayle-Ave-02536/home/77398262,MLS PIN,72641286,N,Y,41.563736,-70.556265
MLS Listing,,Single Family Residential,59 Nautical Ln,Yarmouth,MA,02664,350000,2,1.5,South Yarmouth,1228,10019,1979,29,285,,Active,,,http://www.redfin.com/MA/South-Yarmouth/59-Nautical-Ln-02664/home/135757339,CCIMLS,22002073,N,Y,41.6814807,-70.2140909
MLS Listing,,Condo/Co-op,1 Hilltop Dr,Sandwich,MA,02563,262000,2,2.0,Sandwich,1461,,1984,30,179,,Active,,,http://www.redfin.com/MA/Sandwich/1-Hilltop-Dr-02563/home/134904350,CCIMLS,22002076,N,Y,41.7435653,-70.5021679
MLS Listing,,Single Family Residential,9 kimberley,Harwich,MA,02654,359900,3,1.0,Harwich,1152,11325,1975,30,312,,Active,,,http://www.redfin.com/MA/Harwich/9-kimberley-Unknown/home/171272144,MLS PIN,72641235,N,Y,41.6716498,-70.0622231
MLS Listing,,Single Family Residential,9 Kimberley Way,Harwich,MA,02645,359900,3,1.0,Harwich,1152,11326,1975,30,312,,Active,,,http://www.redfin.com/MA/Harwich/9-Kimberly-Way-02645/home/133011709,CCIMLS,22002074,N,Y,41.7240639,-70.0116313
MLS Listing,,Single Family Residential,189 A Main St,Orleans,MA,02653,499000,3,3.0,Orleans,1344,54885,2005,30,371,,Active,,,http://www.redfin.com/MA/Orleans/189-Main-St-02653/home/133948546,MLS PIN,72641227,N,Y,41.7838074,-69.9701781
MLS Listing,,Single Family Residential,166 Stony Hill Rd,Chatham,MA,02633,535000,4,2.0,Chatham,1632,11742,1971,30,328,,Active,,,http://www.redfin.com/MA/Chatham/166-Stony-Hill-Rd-02633/home/77371789,MLS PIN,72641196,N,Y,41.6953694,-69.9619895
MLS Listing,,Single Family Residential,7 Sylvan Rd,Bourne,MA,02559,379900,4,2.0,Bourne,1500,8625,1950,30,253,,Active,,,http://www.redfin.com/MA/Pocasset/7-Sylvan-Rd-02559/home/77377378,MLS PIN,72641195,N,Y,41.6947225,-70.6125938
MLS Listing,,Single Family Residential,18 Dogwood,Sandwich,MA,02644,529900,4,2.5,Dogwood Estates,3144,25265,1986,30,169,,Active,,,http://www.redfin.com/MA/Forestdale/18-Dogwood-Dr-02644/home/77373953,MLS PIN,72641189,N,Y,41.6928234,-70.504321
MLS Listing,,Single Family Residential,5 Nantucket Trl,Sandwich,MA,02563,389900,3,1.0,Sandwich,1826,19602,1987,30,214,,Active,,,http://www.redfin.com/MA/Sandwich/5-Nantucket-Trl-02563/home/134922211,MLS PIN,72641163,N,Y,41.6929289,-70.4777548
MLS Listing,,Single Family Residential,720 Schoolhouse Rd,Eastham,MA,02642,269000,1,1.0,Eastham (Village),720,34412,1949,30,374,,Active,,,http://www.redfin.com/MA/Eastham/720-School-House-Rd-02642/home/132088807,MLS PIN,72641150,N,Y,41.8484324,-69.9713762
MLS Listing,,Condo/Co-op,158 Eaton Ln #158,Brewster,MA,02631,263000,2,2.0,Brewster,935,,1986,31,281,310,Active,,,http://www.redfin.com/MA/Brewster/158-Eaton-Ln-02631/unit-158/home/136761292,MLS PIN,72641064,N,Y,41.7521612,-70.0496306
MLS Listing,,Single Family Residential,34 Bishops Ln,Harwich,MA,02645,479000,3,2.0,Harwich,1800,20187,1987,31,266,,Active,,,http://www.redfin.com/MA/Harwich/34-Bishops-Ln-02645/home/132956696,CCIMLS,22002065,N,Y,41.6839028,-70.0862965
MLS Listing,,Single Family Residential,352 Sippewissett Rd,Falmouth,MA,02540,1395000,4,4.5,Sippewissett,5032,126457,1996,31,277,,Active,,,http://www.redfin.com/MA/Falmouth/352-Sippewissett-Rd-02540/home/87574011,MLS PIN,72641007,N,Y,41.5566206,-70.6476804
MLS Listing,,Single Family Residential,18 Tiller Dr,Falmouth,MA,02536,429900,4,3.0,East Falmouth,1600,,1990,31,269,4,Active,,,http://www.redfin.com/MA/East-Falmouth/18-Tiller-Dr-02536/home/77387256,MLS PIN,72641004,N,Y,41.590207,-70.5293985
MLS Listing,,Single Family Residential,47 Chase St,Chatham,MA,02633,1850000,4,4.0,Chatham,3395,15682,1971,31,545,,Active,,,http://www.redfin.com/MA/Chatham/47-Chase-St-02633/home/105323437,CCIMLS,22001635,N,Y,41.6761673,-69.9535915
MLS Listing,,Single Family Residential,133 Old Meeting House Rd,Falmouth,MA,02536,359900,3,2.0,East Falmouth,1270,10200,1958,31,283,,Active,,,http://www.redfin.com/MA/East-Falmouth/133-Old-Meeting-House-Rd-02536/home/132335193,MLS PIN,72640936,N,Y,41.5850559,-70.5615163
MLS Listing,,Single Family Residential,70 Gingerplum Ln,Eastham,MA,02642,724000,3,2.0,Eastham,1902,21344,2020,32,381,,Active,,,http://www.redfin.com/MA/Eastham/70-Gingerplum-Ln-02642/home/102153160,MLS PIN,72640862,N,Y,41.815153,-69.979828
MLS Listing,,Vacant Land,116 Bay Rd,Barnstable,MA,02635,399900,,,Cotuit,,27007,,32,,,Active,,,http://www.redfin.com/MA/Cotuit/116-Bay-Rd-02635/home/110982713,CCIMLS,22002059,N,Y,41.613794,-70.4520579
MLS Listing,,Single Family Residential,40 Wilson Ave,Bourne,MA,02532,204900,2,1.0,Bourne,820,7362,1945,32,250,,Active,,,http://www.redfin.com/MA/Buzzards-Bay/40-Wilson-Ave-02532/home/130830782,MLS PIN,72640750,N,Y,41.7494796,-70.6146386
MLS Listing,,Single Family Residential,9 Lindsley Dr,Falmouth,MA,02540,875000,5,4.0,Falmouth,1676,36475,1960,32,522,,Active,,,http://www.redfin.com/MA/Falmouth/9-Lindsley-Rd-02540/home/132347778,MLS PIN,72640692,N,Y,41.5993836,-70.6337855
MLS Listing,,Condo/Co-op,343 Route 28 #226,Yarmouth,MA,02673,45000,1,1.0,Yarmouth,339,,1986,32,133,250,Active,,,http://www.redfin.com/MA/West-Yarmouth/343-MA-28-02673/unit-226/home/18903818,MLS PIN,72640686,N,Y,41.6510259,-70.247762
MLS Listing,,Condo/Co-op,343 Route 28 #224,Yarmouth,MA,02673,45000,1,1.0,West Yarmouth,336,,1986,32,134,250,Active,,,http://www.redfin.com/MA/West-Yarmouth/343-MA-28-02673/unit-224/home/77502652,MLS PIN,72640684,N,Y,41.6510259,-70.247762
MLS Listing,,Condo/Co-op,158 Eaton Ln,Brewster,MA,02631,263000,2,2.0,Brewster,935,,1986,32,281,,Active,,,http://www.redfin.com/MA/Brewster/158-Eaton-Ln-02631/home/77406048,CCIMLS,22002052,N,Y,41.7521612,-70.0496306
MLS Listing,,Single Family Residential,4 Knollwood Dr,Yarmouth,MA,02675,459000,3,1.5,Yarmouth Port,1285,10890,1984,32,357,,Active,,,http://www.redfin.com/MA/Yarmouth-Port/4-Knollwood-Dr-02675/home/135861756,MLS PIN,72640627,N,Y,41.702669,-70.2126724
MLS Listing,,Single Family Residential,40 Bay View Rd,Chatham,MA,02659,709000,4,2.0,Chatham,1686,10871,1955,32,421,,Active,,,http://www.redfin.com/MA/South-Chatham/40-Bay-View-Rd-02659/home/131320692,MLS PIN,72640624,N,Y,41.6781256,-70.0239133
