SALE TYPE,SOLD DATE,PROPERTY TYPE,ADDRESS,CITY,STATE OR PROVINCE,ZIP OR POSTAL CODE,PRICE,BEDS,BATHS,LOCATION,SQUARE FEET,LOT SIZE,YEAR BUILT,DAYS ON MARKET,$/SQUARE FEET,HOA/MONTH,STATUS,NEXT OPEN HOUSE START TIME,NEXT OPEN HOUSE END TIME,URL (SEE http://www.redfin.com/buy-a-home/comparative-market-analysis FOR INFO ON PRICING),SOURCE,MLS#,FAVORITE,INTERESTED,LATITUDE,LONGITUDE
MLS Listing,,Single Family Residential,37 Madison Ave,Holderness,NH,03245,915000,3,2.25,Holderness,2730,22476,1920,1,335,,Active,,,http://www.redfin.com/NH/Holderness/37-Madison-Ave-03245/home/103438351,NEREN,4803737,N,Y,43.730159,-71.588687
MLS Listing,,Condo/Co-op,193 Main St #209,Woodstock,NH,03262,114900,1,1.0,Woodstock,680,,1985,1,169,130,Active,,,http://www.redfin.com/NH/WOODSTOCK/193-MAIN-ST-03293/unit-209/home/88171571,NEREN,4803682,N,Y,44.035221599062076,-71.6869516785736
MLS Listing,,Single Family Residential,19 Dame Hill Rd,Orford,NH,03777,229000,3,2.0,Orford,1596,154638,1865,1,143,,Active,,,http://www.redfin.com/NH/Orford/19-Dame-Hill-Rd-03777/home/88046162,NEREN,4803647,N,Y,43.8842718,-72.1025034
MLS Listing,,Condo/Co-op,5 Potash Rd #3,Lincoln,NH,03251,309900,3,2.5,Lincoln,1175,,1982,1,264,250,Active,,,http://www.redfin.com/NH/Lincoln/5-Potash-Rd-03251/unit-3/home/87990399,NEREN,4803637,N,Y,44.0622414,-71.6239485
MLS Listing,,Single Family Residential,2959 Route 25A,Orford,NH,03777,279000,3,2.0,Orford,2778,126324,2003,1,100,,Active,,,http://www.redfin.com/NH/Orford/2959-NH-25A-03777/home/101385896,NEREN,4803631,N,Y,43.8973792,-72.1335462
MLS Listing,,Townhouse,53 Waterville Acres Rd #14,Thornton,NH,03285,129000,2,1.5,Thornton,1202,,1972,1,107,275,Active,,,http://www.redfin.com/NH/Thornton/53-Waterville-Acres-Rd-03285/unit-14/home/88051184,NEREN,4803613,N,Y,43.8773899,-71.6161196
MLS Listing,,Vacant Land,00 Jockey Hill Rd #51,Landaff,NH,03585,94900,,,Landaff,,975743,,1,,,Active,,,http://www.redfin.com/NH/Landaff/51-Jockey-Hill-Rd-03585/unit-51/home/171532402,NEREN,4803554,N,Y,44.204508,-71.9087867
MLS Listing,,Single Family Residential,7 Gibson Pl,Haverhill,NH,03785,72000,3,1.5,Haverhill,1872,12196,1900,1,38,,Active,,,http://www.redfin.com/NH/HAVERHILL/7-GIBSON-PL-03765/home/87982229,NEREN,4803551,N,Y,44.152812,-72.031868
MLS Listing,,Single Family Residential,250 Choate Rd,Enfield,NH,03748,194900,2,1.0,Enfield,1128,47916,1984,1,173,,Active,,,http://www.redfin.com/NH/Enfield/250-Choate-Rd-03748/home/77462423,NEREN,4803550,N,Y,43.6190984,-72.062402
MLS Listing,,Single Family Residential,295 Maple St,Bethlehem,NH,03574,164900,3,1.0,Bethlehem,960,19602,1976,1,172,,Active,,,http://www.redfin.com/NH/Bethlehem/295-Maple-St-03574/home/103440701,NEREN,4803544,N,Y,44.2876801,-71.6852408
MLS Listing,,Condo/Co-op,23 Hummingbird Dr Unit 1,Lincoln,NH,03251,172500,2,2.0,Lincoln,1064,,1990,2,162,150,Active,,,http://www.redfin.com/NH/Lincoln/23-Hummingbird-Rd-03251/unit-1/home/103425979,NEREN,4803509,N,Y,44.0496119,-71.679187
MLS Listing,,Condo/Co-op,23 Humming Bird Rd #6,Lincoln,NH,03251,179900,2,2.0,Lincoln,1064,1437,1986,2,169,175,Active,,,http://www.redfin.com/NH/Lincoln/23-Hummingbird-Rd-03251/unit-6/home/103425991,NEREN,4803506,N,Y,44.0496119,-71.679187
MLS Listing,,Vacant Land,00 Millie's Cir,Campton,NH,03223,48000,,,Campton,,91911,,2,,,Active,,,http://www.redfin.com/NH/Campton/Millie-s-Cir-03223/home/171528537,NEREN,4803501,N,Y,43.802630428573295,-71.66282038933919
MLS Listing,,Single Family Residential,1 Langdon St,Plymouth,NH,03264,259000,6,2.75,Plymouth,2801,6229,1900,2,92,,Active,,,http://www.redfin.com/NH/Plymouth/1-Langdon-St-03264/home/88168771,NEREN,4803489,N,Y,43.7524119,-71.6917406
MLS Listing,,Single Family Residential,4 Bear Dr,Enfield,NH,03748,374900,4,4.0,Enfield,3337,40946,2006,2,112,304,Active,,,http://www.redfin.com/NH/Enfield/4-Bear-Dr-03748/home/103432933,NEREN,4803487,N,Y,43.5386106,-72.10947
MLS Listing,,Vacant Land,1072 NH Route 49,Thornton,NH,03285,59900,,,Thornton,,141570,,3,,,Active,,,http://www.redfin.com/NH/Thornton/1072-NH-49-03285/home/88050554,NEREN,4803478,N,Y,43.8847338,-71.5876937
MLS Listing,,Condo/Co-op,13 Overlook Rd #1,Campton,NH,03223,92900,1,1.0,Campton,608,,1978,3,153,212,Active,,,http://www.redfin.com/NH/Campton/13-Overlook-Rd-03223/unit-1/home/88323139,NEREN,4803466,N,Y,43.8669719,-71.634615
MLS Listing,,Vacant Land,15 Fondue Dr #15,Thornton,NH,03285,39900,,,Thornton,,77972,,3,,,Active,,,http://www.redfin.com/NH/Thornton/15-Fondue-Ave-03285/unit-15/home/112657483,NEREN,4803456,N,Y,43.8852112,-71.628594
MLS Listing,,Vacant Land,00 Blue Sky Dr #3,Ashland,NH,03217,59000,,,Ashland,,104979,,3,,,Active,,,http://www.redfin.com/NH/Ashland/3-Blue-Sky-Dr-03217/unit-3/home/146275727,NEREN,4803420,N,Y,43.7460055,-71.6475146
MLS Listing,,Single Family Residential,423 Meriden Rd,Lebanon,NH,03766,70600,3,2.0,Lebanon,1344,47916,1945,3,53,,Active,,,http://www.redfin.com/NH/Lebanon/423-Meriden-Rd-03766/home/88178429,NEREN,4803416,N,Y,43.6042097,-72.2196545
MLS Listing,,Single Family Residential,644 Methodist Hill Rd,Enfield,NH,03748,589000,3,4.0,Enfield,3856,218235,1993,4,153,,Active,,,http://www.redfin.com/NH/Enfield/644-Methodist-Hill-Rd-03748/home/103431785,NEREN,4803321,N,Y,43.6050222,-72.1920574
MLS Listing,,Mobile/Manufactured Home,608 River Rd,Lyme,NH,03768,195000,3,2.0,Lyme,1568,104544,1995,4,124,,Active,,,http://www.redfin.com/NH/Lyme/608-River-Rd-03768/home/143826023,NEREN,4803298,N,Y,43.851597,-72.1803586
MLS Listing,,Condo/Co-op,48 Cooper Memorial Dr #209,Lincoln,NH,03251,179900,2,2.0,Lincoln,1100,,1986,4,164,570,Active,,,http://www.redfin.com/NH/Lincoln/48-Cooper-Memorial-Dr-03251/unit-209/home/103427062,NEREN,4803277,N,Y,44.0438694,-71.6694244
MLS Listing,,Condo/Co-op,201 85 Dartmouth College Hwy #201,Lyme,NH,03768,524000,2,2.75,Lyme,2864,,1981,4,183,709,Active,,,http://www.redfin.com/NH/Lyme/85-Dartmouth-College-Hwy-03768/unit-201/home/87995007,NEREN,4803259,N,Y,43.7775423,-72.1817717
MLS Listing,,Vacant Land,28 Lane Rd Lot 28,Holderness,NH,03245,69900,,,Holderness,,100187,,4,,,Active,,,http://www.redfin.com/NH/Holderness/28-Lane-Rd-03245/unit-28/home/104460182,NEREN,4803230,N,Y,43.7106086,-71.5718745
MLS Listing,,Single Family Residential,11 Walnut St,Haverhill,NH,03785,110000,4,1.5,Haverhill,1314,7840,1920,4,84,,Active,,,http://www.redfin.com/NH/HAVERHILL/11-WALNUT-ST-03765/home/87982697,NEREN,4803221,N,Y,44.146305,-72.035232
MLS Listing,,Vacant Land,00 Eastern Corners Rd,Campton,NH,03223,80000,,,Campton,,740520,,4,,,Active,,,http://www.redfin.com/NH/CAMPTON/EASTERN-CORNER-RD-03223/home/88325469,NEREN,4803218,N,Y,43.823749,-71.622378
MLS Listing,,Single Family Residential,139 Breezy Point Rd,Warren,NH,03279,319900,4,2.5,Warren,3256,213444,2004,4,98,,Active,,,http://www.redfin.com/NH/Warren/139-Breezy-Point-Rd-03279/home/96623101,NEREN,4803180,N,Y,43.9553856,-71.8459226
MLS Listing,,Single Family Residential,10 Wildwood Dr,Campton,NH,03223,198900,3,2.5,Campton,2748,91476,1991,5,72,,Active,,,http://www.redfin.com/NH/Campton/10-Wildwood-Dr-03223/home/88322963,NEREN,4803106,N,Y,43.8124551,-71.6757603
MLS Listing,,Vacant Land,33-36 Hawthorne Rd,Lisbon,NH,03585,48900,,,Lisbon,,450410,,5,,,Active,,,http://www.redfin.com/NH/Lisbon/33-Hawthorne-Ln-03585/home/171476192,NEREN,4803100,N,Y,44.2678309,-71.8271508
MLS Listing,,Vacant Land,17 Tee House Ln #17,Waterville Valley,NH,03215,99000,,,Waterville Valley,,21823,,5,,,Active,,,http://www.redfin.com/NH/Waterville-Valley/17-Tee-House-Ln-03215/unit-17/home/171475955,NEREN,4803090,N,Y,43.9581699,-71.50846
MLS Listing,,Vacant Land,Shore Dr,Grafton,NH,03240,14000,,,Grafton,,34412,,5,,,Active,,,http://www.redfin.com/NH/GRAFTON/SHORE-RD-03240/home/88001443,NEREN,4803084,N,Y,43.565043,-72.007805
MLS Listing,,Single Family Residential,99 Thayer Mountain Rd,Wentworth,NH,03282,184800,3,1.0,Wentworth,1020,2163625,1790,5,181,,Active,,,http://www.redfin.com/NH/Wentworth/99-Thayer-Mountain-Rd-03282/home/103005161,NEREN,4803042,N,Y,43.8282716,-71.9229427
MLS Listing,,Single Family Residential,69 Salvation Ave,Rumney,NH,03266,100000,2,1.75,Rumney,1848,10018,1990,5,54,,Active,,,http://www.redfin.com/NH/Rumney/69-Salvation-Ave-03266/home/87926992,NEREN,4803034,N,Y,43.7909556,-71.8042028
MLS Listing,,Single Family Residential,11 Washburn Rd,Alexandria,NH,03222,229900,3,2.5,Alexandria,3655,17424,1789,5,63,,Active,,,http://www.redfin.com/NH/Alexandria/11-Washburn-Rd-03222/home/88284858,NEREN,4803021,N,Y,43.6129261,-71.7962901
MLS Listing,,Single Family Residential,177 Lake St,Bristol,NH,03222,224900,3,1.0,Bristol,1814,13503,1890,5,124,,Active,,,http://www.redfin.com/NH/Bristol/177-Lake-St-03222/home/96553035,NEREN,4802998,N,Y,43.5939889,-71.7436142
MLS Listing,,Single Family Residential,33 Pleasant St,Plymouth,NH,03264,325000,4,4.0,Plymouth,3280,74052,2004,5,99,,Active,,,http://www.redfin.com/NH/Plymouth/33-Pleasant-St-03264/home/103433383,NEREN,4802987,N,Y,43.7558791,-71.6945672
MLS Listing,,Vacant Land,00 Nh Route 118 Hwy,Dorchester,NH,03266,179800,,,Dorchester,,2570040,,5,,,Active,,,http://www.redfin.com/NH/Dorchester/Unknown-Unknown/home/171468709,NEREN,4802979,N,Y,43.79936194987106,-71.91232675170897
MLS Listing,,Vacant Land,Chandler Hill Rd Ofc Chandler,Campton,NH,03223,42000,,,Campton,,2265120,,6,,,Active,,,http://www.redfin.com/NH/Campton/Chandler-Hill-Rd-03223/unit-Chandler/home/109213581,NEREN,4802946,N,Y,43.82757432242534,-71.6851273864746
MLS Listing,,Vacant Land,0 Grafton Pond Rd,Enfield,NH,03748,36900,,,Enfield,,217800,,6,,,Active,,,http://www.redfin.com/NH/ENFIELD/GRAFTON-POND-RD-03748/home/103431540,NEREN,4802919,N,Y,43.582096,-72.04767
MLS Listing,,Mobile/Manufactured Home,110 Timber Ln,Bristol,NH,03222,115000,3,1.5,Bristol,970,9583,1991,6,119,,Active,,,http://www.redfin.com/NH/Bristol/110-Timber-Ln-03222/home/101837034,NEREN,4802895,N,Y,43.5862038,-71.7409424
MLS Listing,,Single Family Residential,10 Quail Dr,Hanover,NH,03750,725000,3,2.5,Hanover,3149,110642,1975,6,230,,Active,,,http://www.redfin.com/NH/Etna/10-Quail-Dr-03750/home/103031687,NEREN,4802879,N,Y,43.6950013,-72.2215472
MLS Listing,,Vacant Land,0 Halfmoon Pond Rd,Grafton,NH,03240,52500,,,Grafton,,26136,,6,,,Active,,,http://www.redfin.com/NH/Grafton/Halfmoon-Pond-Rd-03240/home/88001310,NEREN,4802845,N,Y,43.563688,-72.002601
MLS Listing,,Vacant Land,12 Northwood Estates Dr,Grafton,NH,03240,21500,,,Grafton,,113256,,6,,,Active,,,http://www.redfin.com/NH/Grafton/12-Northwood-Ests-03240/home/104020547,NEREN,4802842,N,Y,43.5978122,-71.9709219
MLS Listing,,Single Family Residential,1 Butternut Ln,Hanover,NH,03755,985000,4,3.25,Hanover,3723,43124,1962,6,265,,Active,,,http://www.redfin.com/NH/Hanover/1-Butternut-Ln-03755/home/103031744,NEREN,4802841,N,Y,43.7087071,-72.2737215
MLS Listing,,Single Family Residential,14 Goodbout Rd,Lincoln,NH,03251,99000,3,0.75,Lincoln,924,11761,1989,7,107,,Active,,,http://www.redfin.com/NH/Lincoln/14-Goodbout-Rd-03251/home/103425323,NEREN,4802803,N,Y,44.0596743,-71.6896825
MLS Listing,,Mobile/Manufactured Home,19 Lunar Dr,Canaan,NH,03741,78000,3,2.0,Canaan,1120,,2016,7,70,416,Active,,,http://www.redfin.com/NH/Canaan/19-Lunar-Dr-03741/home/91251300,NEREN,4802786,N,Y,43.6938079,-71.987879
MLS Listing,,Vacant Land,0 Lafreniere Ln,Grafton,NH,03240,45000,,,Grafton,,1467972,,7,,,Active,,,http://www.redfin.com/NH/GRAFTON/LAFRENIERE-LN-03240/home/88001085,NEREN,4802727,N,Y,43.539487,-72.012403
MLS Listing,,Single Family Residential,242 Jerusalem Rd,Canaan,NH,03741,439000,3,2.25,Canaan,3456,1136916,2008,7,127,,Active,,,http://www.redfin.com/NH/Canaan/242-Jerusalem-Rd-03741/home/88062769,NEREN,4802724,N,Y,43.6625784,-71.9799727
MLS Listing,,Vacant Land,Main St,Grafton,NH,03240,36500,,,Grafton,,95832,,7,,,Active,,,http://www.redfin.com/NH/GRAFTON/MAIN-ST-03240/home/88000207,NEREN,4802720,N,Y,43.609847,-71.96892
MLS Listing,,Condo/Co-op,5 Autumn Ave #3,Lincoln,NH,03251,274900,2,2.5,Lincoln,1300,,1986,8,211,290,Active,,,http://www.redfin.com/NH/Lincoln/5-Autumn-Ave-03251/unit-3/home/87989909,NEREN,4802674,N,Y,44.0508674,-71.6564466
MLS Listing,,Single Family Residential,133 Seven Pines Rd,Holderness,NH,03245,155000,1,0.75,Holderness,509,18730,1940,8,305,,Active,,,http://www.redfin.com/NH/Holderness/133-Seven-Pines-Rd-03245/home/80108062,NEREN,4802617,N,Y,43.7544571,-71.6370679
MLS Listing,,Vacant Land,11 Hay Hill Rd,Lincoln,NH,03251,299000,,,Lincoln,,30927,,9,,,Active,,,http://www.redfin.com/NH/Lincoln/11-Hay-Hill-Rd-03251/home/103427300,NEREN,4802517,N,Y,44.0583758,-71.6152764
MLS Listing,,Vacant Land,"#15 Donnas Way Lot 15",Thornton,NH,03223,19400,,,Thornton,,44431,,9,,,Active,,,http://www.redfin.com/NH/Thornton/15-Donnas-Way-03285/unit-15/home/105438574,NEREN,4802510,N,Y,43.8950106,-71.5880068
MLS Listing,,Single Family Residential,55 Pine St S,Bridgewater,NH,03222,189900,2,1.0,Bridgewater,907,19166,1976,10,209,13,Active,,,http://www.redfin.com/NH/Bristol/55-S-Pine-St-03222/home/103428972,NEREN,4802472,N,Y,43.6539282,-71.7556696
MLS Listing,,Single Family Residential,1137 NH Rte 175 Rte,Campton,NH,03223,329000,3,2.75,Campton,2890,22651,2005,10,114,,Active,,,http://www.redfin.com/NH/Campton/1137-NH-175-03223/home/88324065,NEREN,4802448,N,Y,43.8530527,-71.6354709
MLS Listing,,Single Family Residential,47 Panorama Ln,Hebron,NH,03241,799900,3,2.5,Hebron,4500,218671,2001,11,178,,Active,,,http://www.redfin.com/NH/Hebron/47-Panorama-Ln-03241/home/84907256,NEREN,4802368,N,Y,43.6657085,-71.8004728
MLS Listing,,Single Family Residential,34 Clay Brook Dr,Plymouth,NH,03264,389800,3,2.5,Plymouth,2432,95832,2000,11,160,,Active,,,http://www.redfin.com/NH/Plymouth/34-Clay-Brook-Dr-03264/home/103433414,NEREN,4802364,N,Y,43.7590281,-71.7313573
MLS Listing,,Vacant Land,2 Panorama Ln Lot 2,Hebron,NH,03241,299900,,,Hebron,,217800,,11,,,Active,,,http://www.redfin.com/NH/Hebron/2-Panorama-Ln-03241/unit-2/home/171414164,NEREN,4802334,N,Y,43.6663327,-71.7979248
MLS Listing,,Single Family Residential,422 Nh Route 10,Orford,NH,03777,499000,13,10.5,Orford,7950,148104,1770,11,63,,Active,,,http://www.redfin.com/NH/Orford/422-New-Hampshire-10-03777/home/167661124,NEREN,4802327,N,Y,43.8965839,-72.146429
MLS Listing,,Single Family Residential,408 Goose Pond Rd,Canaan,NH,03741,123900,2,1.0,Canaan,728,8712,1993,11,170,,Active,,,http://www.redfin.com/NH/Canaan/408-Goose-Pond-Rd-03741/home/88062842,NEREN,4802282,N,Y,43.6770226,-72.0954692
MLS Listing,,Vacant Land,0 Hemp Hill Rd. / Cardigan Mt. Rd,Bristol,NH,03222,64900,,,Bristol,,55974,,11,,,Active,,,http://www.redfin.com/NH/BRISTOL/HEMP-HILL-RD-03222/home/103430868,NEREN,4802280,N,Y,43.605181,-71.761351
MLS Listing,,Multi-Family (5+ Unit),445 Route 302,Lisbon,NH,03585,895000,15,13.25,Lisbon,9552,357191,1830,12,94,,Active,,,http://www.redfin.com/NH/Lisbon/445-U-S-302-03585/unit-006/home/161375162,NEREN,4802260,N,Y,44.2202414,-71.8961583
MLS Listing,,Vacant Land,1 Squam River Lndg,Ashland,NH,03217,58000,,,Ashland,,20037,,12,,,Active,,,http://www.redfin.com/NH/Ashland/283-River-St-03217/home/109751297,NEREN,4802234,N,Y,43.718059,-71.6189072
MLS Listing,,Vacant Land,32 Furlow Ln Lot 1,Enfield,NH,03748,179500,,,Enfield,,858567,,12,,,Active,,,http://www.redfin.com/NH/Enfield/32-Furlow-Ln-03748/unit-1/home/171421867,NEREN,4802199,N,Y,43.6177684,-72.1868788
MLS Listing,,Vacant Land,43 Cutting Hill Rd,Haverhill,NH,03765,69500,,,Haverhill,,722224,,12,,,Active,,,http://www.redfin.com/NH/Haverhill/43-Cutting-Hill-RD-03765/home/171406018,NEREN,4802145,N,Y,44.03771515957716,-72.05240040740966
MLS Listing,,Single Family Residential,116 Mount Eustis Rd,Littleton,NH,03561,279900,4,2.5,Littleton,2765,37897,1900,13,101,,Active,,,http://www.redfin.com/NH/Littleton/116-Mt-Eustis-Rd-03561/home/96617620,NEREN,4802131,N,Y,44.2984601,-71.7716924
MLS Listing,,Condo/Co-op,20 Condo Rd #1,Campton,NH,03223,119900,3,1.5,Campton,1170,130680,1974,13,102,377,Active,,,http://www.redfin.com/NH/Campton/20-Condo-Rd-03223/unit-1/home/63523024,NEREN,4802117,N,Y,43.8693509,-71.606043
MLS Listing,,Single Family Residential,97 Tyler Way,Bath,NH,03740,119900,2,1.75,Bath,2704,46173,1972,13,44,,Active,,,http://www.redfin.com/NH/Bath/97-Tyler-Way-03740/home/88167466,NEREN,4802072,N,Y,44.1232881,-71.9320564
MLS Listing,,Vacant Land,123 Mathews Rd,Alexandria,NH,03222,49750,,,Alexandria,,54450,,13,,,Active,,,http://www.redfin.com/NH/Alexandria/123-Mathews-Rd-03222/home/88284938,NEREN,4802055,N,Y,43.6016171,-71.77849
MLS Listing,,Vacant Land,Seven Sisters Cir #9,Campton,NH,03223,29900,,,Campton,,85813,,14,,,Active,,,http://www.redfin.com/NH/Campton/Seven-Sisters-CIR-03223/unit-9/home/171388133,NEREN,4801990,N,Y,43.79413558855417,-71.68748773040771
MLS Listing,,Vacant Land,Seven Sisters Cir #8,Campton,NH,03223,34900,,,Campton,,151153,,14,,,Active,,,http://www.redfin.com/NH/Campton/Seven-Sisters-CIR-03223/unit-8/home/171388029,NEREN,4801987,N,Y,43.79360122206929,-71.68727315368652
MLS Listing,,Vacant Land,Seven Sisters Cir #6,Campton,NH,03223,39900,,,Campton,,252648,,14,,,Active,,,http://www.redfin.com/NH/Campton/Seven-Sisters-CIR-03223/unit-6/home/171387975,NEREN,4801985,N,Y,43.79228464657305,-71.68808854522705
MLS Listing,,Vacant Land,Seven Sisters Cir #7,Campton,NH,03223,34900,,,Campton,,169448,,14,,,Active,,,http://www.redfin.com/NH/Campton/Seven-Sisters-CIR-03223/unit-7/home/171387879,NEREN,4801982,N,Y,43.7930978289809,-71.68765939178466
MLS Listing,,Vacant Land,Seven Sisters Cir #10,Campton,NH,03223,44900,,,Campton,,80150,,14,,,Active,,,http://www.redfin.com/NH/Campton/Seven-Sisters-CIR-03223/unit-10/home/171387819,NEREN,4801981,N,Y,43.79349279930081,-71.68830312194824
MLS Listing,,Single Family Residential,34 Pond Rd,Campton,NH,03223,299900,6,4.0,Campton,3024,270072,1980,14,99,,Active,,,http://www.redfin.com/NH/Campton/34-Pond-Rd-03223/home/88324782,NEREN,4801919,N,Y,43.8625518,-71.6297539
