SALE TYPE,SOLD DATE,PROPERTY TYPE,ADDRESS,CITY,STATE OR PROVINCE,ZIP OR POSTAL CODE,PRICE,BEDS,BATHS,LOCATION,SQUARE FEET,LOT SIZE,YEAR BUILT,DAYS ON MARKET,$/SQUARE FEET,HOA/MONTH,STATUS,NEXT OPEN HOUSE START TIME,NEXT OPEN HOUSE END TIME,URL (SEE http://www.redfin.com/buy-a-home/comparative-market-analysis FOR INFO ON PRICING),SOURCE,MLS#,FAVORITE,INTERESTED,LATITUDE,LONGITUDE
MLS Listing,,Single Family Residential,17 Tantummaheag Rd,Old Lyme,CT,06371,1695000,4,3.5,Tantummaheag,2814,322344,1748,1,602,,Active,,,http://www.redfin.com/CT/Old-Lyme/17-Tantummaheag-Rd-06371/home/54443460,Smart MLS,170288350,N,Y,41.3411194,-72.3461318
MLS Listing,,Multi-Family (2-4 Unit),632 E Main St,Norwich,CT,06360,189900,7,3.0,Norwich,2181,16988,1850,1,87,,Active,,,http://www.redfin.com/CT/Norwich/632-E-Main-St-06360/home/53937177,Smart MLS,170292381,N,Y,41.5208319,-72.0589686
MLS Listing,,Single Family Residential,17 Chapman Dr,East Lyme,CT,06333,510000,5,4.0,Flanders Village,3892,223898,1987,1,131,,Active,,,http://www.redfin.com/CT/East-Lyme/17-Chapman-Dr-06333/home/54385040,Smart MLS,170292425,N,Y,41.408128,-72.220615
MLS Listing,,Single Family Residential,263 Washington St,Norwich,CT,06360,179900,3,1.5,Norwich,1882,10018,1930,1,96,,Active,,,http://www.redfin.com/CT/Norwich/263-Washington-St-06360/home/53928523,Smart MLS,170292298,N,Y,41.5393636,-72.0846581
MLS Listing,,Single Family Residential,32 Saw Mill Dr,Ledyard,CT,06339,245500,3,2.5,Ledyard,2716,60548,1998,1,90,,Active,,,http://www.redfin.com/CT/Ledyard/32-Saw-Mill-Dr-06339/home/54200044,Smart MLS,170292358,N,Y,41.4406675,-71.9826217
MLS Listing,,Single Family Residential,414 Route 165,Preston,CT,06365,339000,4,2.5,Preston City,2800,164221,1798,1,121,,Active,,,http://www.redfin.com/CT/Preston/414-CT-165-06365/home/54046019,Smart MLS,170292332,N,Y,41.5304348,-71.9717977
MLS Listing,,Single Family Residential,19 David Ave,Griswold,CT,06351,214000,3,2.0,Griswold,1008,20908,1994,1,212,,Active,,,http://www.redfin.com/CT/Griswold/19-David-Ave-06351/home/53858232,Smart MLS,170292237,N,Y,41.6316923,-71.9705359
MLS Listing,,Vacant Land,22 Aspen Ct,Norwich,CT,06360,38500,,,Norwich,,78408,,1,,,Active,,,http://www.redfin.com/CT/Norwich/22-Aspen-Ct-06360/home/53939431,Smart MLS,170292260,N,Y,41.5452772,-72.1319677
MLS Listing,,Condo/Co-op,98 Leafwood Ln #176,Groton,CT,06340,154000,2,2.0,Center Groton,1076,,1990,1,143,322,Active,,,http://www.redfin.com/CT/Groton/98-Leafwood-Ln-06340/unit-176/home/54185140,Smart MLS,170292170,N,Y,41.3682368,-72.0528439
MLS Listing,,Vacant Land,27 Quakertown Mdws,Ledyard,CT,06339,85500,,,Quakertown Meadows,,33976,,1,,,Active,,,http://www.redfin.com/CT/Ledyard/27-Quakertown-MDWS-06339/home/164322693,Smart MLS,170292227,N,Y,41.411366,-72.001676
MLS Listing,,Vacant Land,26 Quakertown Mdws,Ledyard,CT,06339,88000,,,Quakertown Meadows,,33541,,1,,,Active,,,http://www.redfin.com/CT/Ledyard/26-Quakertown-MDWS-06339/home/164322036,Smart MLS,170292226,N,Y,41.412057,-72.001138
MLS Listing,,Vacant Land,25 Quakertown Mdws,Ledyard,CT,06339,82000,,,Quakertown Meadows,,32234,,1,,,Active,,,http://www.redfin.com/CT/Ledyard/25-Quakertown-MDWS-06339/home/164321369,Smart MLS,170292225,N,Y,41.411099,-72.000688
MLS Listing,,Vacant Land,24 Quakertown Mdws,Ledyard,CT,06339,86000,,,Quakertown Meadows,,30491,,1,,,Active,,,http://www.redfin.com/CT/Ledyard/24-Quakertown-MDWS-06339/home/164321093,Smart MLS,170292224,N,Y,41.411943,-72.000055
MLS Listing,,Vacant Land,23 Quakertown Mdws,Ledyard,CT,06339,83500,,,Quakertown Meadows,,29620,,1,,,Active,,,http://www.redfin.com/CT/Ledyard/23-Quakertown-MDWS-06339/home/164320297,Smart MLS,170292223,N,Y,41.410987,-72.000663
MLS Listing,,Vacant Land,22 Quakertown Mdws,Ledyard,CT,06339,87500,,,Quakertown Meadows,,37897,,1,,,Active,,,http://www.redfin.com/CT/Ledyard/22-Quakertown-MDWS-06339/home/164319180,Smart MLS,170292222,N,Y,41.411638,-72.000845
MLS Listing,,Vacant Land,21 Quakertown Mdws,Ledyard,CT,06339,87500,,,Ledyard,,28749,,1,,,Active,,,http://www.redfin.com/CT/Ledyard/21-Quakertown-MDWS-06339/home/164279048,Smart MLS,170292220,N,Y,41.411135,-72.001256
MLS Listing,,Vacant Land,20 Quakertown Mdws,Ledyard,CT,06339,87500,,,Quakertown Meadows,,37461,,1,,,Active,,,http://www.redfin.com/CT/Ledyard/20-Quakertown-MDWS-06339/home/169649391,Smart MLS,170292219,N,Y,41.41172,-72.000136
MLS Listing,,Vacant Land,19 Quakertown Mdws,Ledyard,CT,06339,81000,,,Quakertown Meadows,,20473,,1,,,Active,,,http://www.redfin.com/CT/Ledyard/19-Quakertown-MDWS-06339/home/164274900,Smart MLS,170292217,N,Y,41.410868,-72.000295
MLS Listing,,Vacant Land,18 Quakertown Mdws,Ledyard,CT,06339,82000,,,Quakertown Meadows,,31798,,1,,,Active,,,http://www.redfin.com/CT/Ledyard/18-Quakertown-MDWS-06339/home/164272008,Smart MLS,170292216,N,Y,41.41119,-71.999776
MLS Listing,,Vacant Land,17 Quakertown Mdws,Ledyard,CT,06339,82000,,,Quakertown Meadows,,21344,,1,,,Active,,,http://www.redfin.com/CT/Ledyard/17-Quakertown-MDWS-06339/home/164270308,Smart MLS,170292214,N,Y,41.411004,-72.000213
MLS Listing,,Vacant Land,16 Quakertown Mdws,Ledyard,CT,06339,84000,,,Quakertown Meadows,,24829,,1,,,Active,,,http://www.redfin.com/CT/Ledyard/16-Quakertown-MDWS-06339/home/164267065,Smart MLS,170292213,N,Y,41.41114,-72.000166
MLS Listing,,Vacant Land,15 Quakertown Mdws,Ledyard,CT,06339,80000,,,Quakertown Meadows,,21344,,1,,,Active,,,http://www.redfin.com/CT/Ledyard/15-Quakertown-MDWS-06339/home/164265123,Smart MLS,170292211,N,Y,41.411151,-72.00048
MLS Listing,,Vacant Land,14 Quakertown Mdws,Ledyard,CT,06339,80500,,,Gales Ferry,,17859,,1,,,Active,,,http://www.redfin.com/CT/Ledyard/14-Quakertown-MDWS-06339/home/164256435,Smart MLS,170292208,N,Y,41.411159,-71.999285
MLS Listing,,Vacant Land,13 Quakertown Mdws,Ledyard,CT,06339,80000,,,Quakertown Meadows,,17859,,1,,,Active,,,http://www.redfin.com/CT/Ledyard/13-Quakertown-MDWS-06339/home/164253410,Smart MLS,170292203,N,Y,41.410724,-71.999927
MLS Listing,,Vacant Land,11 Quakertown Mdws,Ledyard,CT,06339,80000,,,Quaker Town,,22215,,1,,,Active,,,http://www.redfin.com/CT/Ledyard/11-Quakertown-MDWS-06339/home/164245715,Smart MLS,170292200,N,Y,41.411754,-72.002439
MLS Listing,,Vacant Land,7 Quakertown Mdws,Ledyard,CT,06339,82000,,,Quaker Town,,30927,,1,,,Active,,,http://www.redfin.com/CT/Ledyard/7-Quakertown-MDWS-06339/home/171235419,Smart MLS,170292198,N,Y,41.411247,-71.999041
MLS Listing,,Vacant Land,3 Quakertown Mdws,Ledyard,CT,06339,81000,,,Quaker Town,,20908,,1,,,Active,,,http://www.redfin.com/CT/Ledyard/3-Quakertown-MDWS-06339/home/164202191,Smart MLS,170292193,N,Y,41.41017,-71.99863
MLS Listing,,Single Family Residential,158 West Broad St,Pawcatuck,CT,06379,349000,3,2.0,Pawcatuck,2560,10000,1956,1,136,,Active,,,http://www.redfin.com/CT/Pawcatuck/158-W-Broad-St-06379/home/53854445,RIS,1252826,N,Y,41.376142,-71.8408963
MLS Listing,,Single Family Residential,9 Kathryn Ct,Waterford,CT,06385,524900,4,2.5,Waterford,2750,63597,2019,1,191,,Active,,,http://www.redfin.com/CT/Waterford/9-Kathryn-Ct-06385/home/54092107,Smart MLS,170292134,N,Y,41.343938,-72.16988
MLS Listing,,Single Family Residential,60 Brush Hill Rd,Lyme,CT,06371,949000,3,2.5,Hadlyme,5159,466091,1987,1,184,,Active,,,http://www.redfin.com/CT/Lyme/60-Brush-Hill-Rd-06371/home/54047439,Smart MLS,170291472,N,Y,41.4182,-72.388988
MLS Listing,,Condo/Co-op,97 W Main St #93,East Lyme,CT,06357,229000,2,2.5,Niantic,1520,,1984,2,151,300,Active,,,http://www.redfin.com/CT/Niantic/97-W-Main-St-06357/unit-93/home/54379178,Smart MLS,170292074,N,Y,41.3204871,-72.215515
MLS Listing,,Single Family Residential,188 Lebanon Rd,Franklin,CT,06254,239000,3,2.5,North Franklin,1843,85813,1993,2,130,,Active,,,http://www.redfin.com/CT/North-Franklin/188-Norwich-Lebanon-Rd-06254/home/54126072,Smart MLS,170292009,N,Y,41.584228,-72.1546407
MLS Listing,,Vacant Land,471 Roode Rd,Griswold,CT,06351,49900,,,Griswold,,71874,,2,,,Active,,,http://www.redfin.com/CT/Griswold/471-Roode-Rd-06351/home/171516420,Smart MLS,170291566,N,Y,41.626143,-71.920914
MLS Listing,,Vacant Land,465 Roode Rd,Griswold,CT,06351,59900,,,Griswold,,167706,,2,,,Active,,,http://www.redfin.com/CT/Griswold/465-Roode-Rd-06351/home/171516397,Smart MLS,170291583,N,Y,41.6258027,-71.9207549
MLS Listing,,Vacant Land,453 Roode Rd,Griswold,CT,06351,69900,,,Griswold,,241322,,2,,,Active,,,http://www.redfin.com/CT/Griswold/453-Roode-Rd-06351/home/171516358,Smart MLS,170291586,N,Y,41.6248292,-71.9204595
MLS Listing,,Vacant Land,449 Roode Rd,Griswold,CT,06351,69900,,,Griswold,,191228,,2,,,Active,,,http://www.redfin.com/CT/Griswold/449-Roode-Rd-06351/home/171516145,Smart MLS,170291589,N,Y,41.6244788,-71.9203959
MLS Listing,,Single Family Residential,15 River Rd,East Lyme,CT,06333,249720,3,2.0,East Lyme,1677,2178,1930,2,149,,Active,,,http://www.redfin.com/CT/East-Lyme/15-River-Rd-06333/home/54381474,Smart MLS,170291964,N,Y,41.3684725,-72.1952641
MLS Listing,,Vacant Land,445 Roode Rd,Griswold,CT,06351,69900,,,Griswold,,607226,,2,,,Active,,,http://www.redfin.com/CT/Griswold/445-Roode-Rd-06351/home/171516119,Smart MLS,170291591,N,Y,41.6241167,-71.9203256
MLS Listing,,Vacant Land,419 Roode Rd,Griswold,CT,06351,59900,,,Griswold,,194713,,2,,,Active,,,http://www.redfin.com/CT/Griswold/419-Roode-Rd-06351/home/171515996,Smart MLS,170291594,N,Y,41.6220716,-71.9202707
MLS Listing,,Vacant Land,399 Roode Rd,Griswold,CT,06351,64900,,,Griswold,,179467,,2,,,Active,,,http://www.redfin.com/CT/Griswold/399-Roode-Rd-06351/home/171515936,Smart MLS,170291603,N,Y,41.6212044,-71.9195304
MLS Listing,,Single Family Residential,25 Barton Ln,Ledyard,CT,06339,275000,3,2.0,Ledyard,1400,80586,1960,2,196,,Active,,,http://www.redfin.com/CT/Ledyard/25-Barton-Ln-06339/home/54199181,Smart MLS,170291959,N,Y,41.4029678,-72.0190614
MLS Listing,,Single Family Residential,75 Asylum St,Norwich,CT,06360,200000,3,1.5,Norwich,2341,4356,1933,3,85,,Active,,,http://www.redfin.com/CT/Norwich/75-Asylum-St-06360/home/53939043,Smart MLS,170291593,N,Y,41.5253082,-72.0904721
MLS Listing,,Single Family Residential,39 Fern Dr,Colchester,CT,06415,189900,3,1.5,Colchester,1760,14374,1957,3,108,,Active,,,http://www.redfin.com/CT/Colchester/39-Fern-Dr-06415/home/54246990,Smart MLS,170291534,N,Y,41.566884,-72.3125897
MLS Listing,,Single Family Residential,18 W End Dr,Old Lyme,CT,06371,1200000,5,3.5,Hawk's Nest Beach,2638,9583,2017,3,455,25,Active,,,http://www.redfin.com/CT/Old-Lyme/18-W-End-Dr-06371/home/54445381,Smart MLS,170290593,N,Y,41.2817327,-72.2845133
MLS Listing,,Single Family Residential,56 Church Hill Rd,Ledyard,CT,06339,249900,5,2.5,Ledyard,2088,56628,1976,3,120,,Active,,,http://www.redfin.com/CT/Ledyard/56-Church-Hill-Rd-06339/home/54195739,Smart MLS,170276510,N,Y,41.4622318,-72.0099151
MLS Listing,,Condo/Co-op,113 Horse Pond Rd Unit F,Salem,CT,06420,48000,1,1.0,Horse Pond,714,,1989,3,67,235,Active,,,http://www.redfin.com/CT/Salem/113-Horse-Pond-Rd-06420/unit-F/home/54361616,Smart MLS,170291746,N,Y,41.4644413,-72.2451239
MLS Listing,,Single Family Residential,11 Darling Ln,Waterford,CT,06385,244900,3,2.0,Oswwegatchie,1171,4791,1890,3,209,,Active,,,http://www.redfin.com/CT/Waterford/11-Darling-Ln-06385/home/54096451,Smart MLS,170291800,N,Y,41.3570737,-72.1847776
MLS Listing,,Single Family Residential,32 Seaside Ln,Old Lyme,CT,06371,429900,4,2.0,White Sand Beach,1432,6098,1940,3,300,69,Active,,,http://www.redfin.com/CT/Old-Lyme/32-Seaside-Ln-06371/home/54445426,Smart MLS,170291567,N,Y,41.2808165,-72.3025066
MLS Listing,,Single Family Residential,47 Four Mile River Rd,Old Lyme,CT,06371,209900,3,1.0,Four Mile River,1020,29185,1948,3,206,,Active,,,http://www.redfin.com/CT/Old-Lyme/47-4-Mile-River-Rd-06371/home/54443558,Smart MLS,170290293,N,Y,41.3181368,-72.2571279
MLS Listing,,Condo/Co-op,273 Bridge St #15,Groton,CT,06340,179500,2,1.5,Groton City,1309,,2003,3,137,240,Active,,,http://www.redfin.com/CT/Groton/273-Bridge-St-06340/unit-15/home/54175078,Smart MLS,170291679,N,Y,41.3601034,-72.075183
MLS Listing,,Multi-Family (2-4 Unit),101 Cliff St,Norwich,CT,06360,144900,6,2.5,Norwich,3543,4356,1880,3,41,,Active,,,http://www.redfin.com/CT/Norwich/101-Cliff-St-06360/home/53937546,Smart MLS,170285949,N,Y,41.5262348,-72.0695232
MLS Listing,,Single Family Residential,298 Boston Post Rd,East Lyme,CT,06333,350000,4,2.5,East Lyme,2514,36590,2000,3,139,,Active,,,http://www.redfin.com/CT/East-Lyme/298-Boston-Post-Rd-06333/home/54384273,Smart MLS,170291688,N,Y,41.3652939,-72.232192
MLS Listing,,Single Family Residential,1090 Ocean Ave,New London,CT,06320,619000,3,2.5,Ocean Beach,3299,21780,1950,3,188,,Active,,,http://www.redfin.com/CT/New-London/1090-Ocean-Ave-06320/home/53736467,Smart MLS,170287288,N,Y,41.313072,-72.0965793
MLS Listing,,Single Family Residential,34 Burr Rd,Lyme,CT,06371,334500,3,2.5,Bill Hill,2352,87120,1970,3,142,,Active,,,http://www.redfin.com/CT/Lyme/34-Burr-Rd-06371/home/54047597,Smart MLS,170266912,N,Y,41.3578394,-72.3291475
MLS Listing,,Single Family Residential,680 Beaumont Hwy,Lebanon,CT,06249,239900,4,2.0,Lebanon,2442,185130,1981,3,98,,Active,,,http://www.redfin.com/CT/Lebanon/680-Beaumont-Hwy-06249/home/54441432,Smart MLS,170291659,N,Y,41.6625158,-72.2238641
MLS Listing,,Single Family Residential,1 Oakridge Ln,Bozrah,CT,06334,374500,4,3.5,Bozrah,3124,90169,2000,3,120,,Active,,,http://www.redfin.com/CT/Bozrah/1-Oakridge-Ln-06334/home/54346458,Smart MLS,170291413,N,Y,41.5630826,-72.2024418
MLS Listing,,Single Family Residential,28 N Bridebrook Rd,East Lyme,CT,06357,232500,3,1.0,East Lyme,1008,12632,1966,4,231,,Active,,,http://www.redfin.com/CT/Niantic/28-N-Bridebrook-Rd-06357/home/54383794,Smart MLS,170291544,N,Y,41.3209343,-72.2417225
MLS Listing,,Single Family Residential,393 Wawecus Hill Rd,Norwich,CT,06360,379900,4,3.5,Norwich,2243,59241,1992,4,169,,Active,,,http://www.redfin.com/CT/NORWICH/393-WAWECUS-HILL-RD-06360/home/53937052,Smart MLS,170291204,N,Y,41.534613,-72.139055
MLS Listing,,Condo/Co-op,61 S Main St #205,Griswold,CT,06351,174900,2,2.5,Jewett City,1510,,2011,4,116,180,Active,,,http://www.redfin.com/CT/Griswold/61-S-Main-St-06351/unit-205/home/53854883,Smart MLS,170291526,N,Y,41.6036418,-71.9871205
MLS Listing,,Single Family Residential,35 Deer Run Dr,Colchester,CT,06415,349900,4,2.5,Deer Run,2465,91911,1991,4,142,,Active,,,http://www.redfin.com/CT/Colchester/35-Deer-Run-Dr-06415/home/54245046,Smart MLS,170279295,N,Y,41.5924315,-72.4041998
MLS Listing,,Vacant Land,40 Gardner Lake Hts,Salem,CT,06420,39900,,,Salem,,13068,,4,,13,Active,,,http://www.redfin.com/CT/Salem/40-Gardner-Lake-Hts-06420/home/54361229,Smart MLS,170291535,N,Y,41.5179337,-72.2368511
MLS Listing,,Single Family Residential,19 Hillcrest Rd,Groton,CT,06340,209900,3,2.0,Groton City,1587,10454,1948,4,132,,Active,,,http://www.redfin.com/CT/Groton/19-Hillcrest-Rd-06340/home/54177670,Smart MLS,170290796,N,Y,41.3538849,-72.0570359
MLS Listing,,Single Family Residential,20 Hurlbutt Rd,Ledyard,CT,06335,184900,4,2.0,Gales Ferry,1830,31363,1848,4,101,,Active,,,http://www.redfin.com/CT/Gales-Ferry/20-Hurlbutt-Rd-06335/home/54197513,Smart MLS,170291449,N,Y,41.4284675,-72.0861182
MLS Listing,,Vacant Land,101 N Shore Rd,Voluntown,CT,06384,59000,,,Beach Pond,,120225,,4,,,Active,,,http://www.redfin.com/CT/Voluntown/101-N-Shore-Rd-06384/home/53790538,Smart MLS,170291311,N,Y,41.5857143,-71.8129035
MLS Listing,,Single Family Residential,13 Hillcrest Ave,Ledyard,CT,06339,165000,3,1.0,Aljen Heights,1080,13939,1960,4,153,,Active,,,http://www.redfin.com/CT/Ledyard/13-Hillcrest-Ave-06339/home/54195683,Smart MLS,170290911,N,Y,41.4813643,-72.0441545
MLS Listing,,Single Family Residential,124 Holly Hill Dr,Montville,CT,06382,250000,3,1.5,Holly Hill,1772,10890,1965,4,141,,Active,,,http://www.redfin.com/CT/Montville/124-Holly-Hill-Dr-06382/home/54023804,Smart MLS,170291327,N,Y,41.4907552,-72.1033603
MLS Listing,,Single Family Residential,7 Bay St,Stonington,CT,06378,875000,3,2.0,Mystic,1658,5227,1902,4,528,,Active,,,http://www.redfin.com/CT/Stonington/7-Bay-St-06378/home/53849381,Smart MLS,170290576,N,Y,41.3745979,-71.9064545
MLS Listing,,Single Family Residential,615 Westchester Rd,Colchester,CT,06415,310000,4,2.0,Westchester,1800,95832,1960,4,172,,Active,,,http://www.redfin.com/CT/Colchester/615-Westchester-Rd-06415/home/54245586,Smart MLS,170291227,N,Y,41.534238,-72.409045
MLS Listing,,Single Family Residential,27 Crandall Hill Rd,Montville,CT,06353,179487,4,2.0,Palmertown,1786,244371,1902,5,100,,Active,,,http://www.redfin.com/CT/Montville/27-Crandall-Hill-Rd-06353/home/54023489,Smart MLS,170289978,N,Y,41.4499147,-72.1262773
MLS Listing,,Single Family Residential,22 Fountain St,Norwich,CT,06360,99900,2,1.0,Norwich,1008,9147,1900,5,99,,Active,,,http://www.redfin.com/CT/Norwich/22-Fountain-St-06360/home/53938633,Smart MLS,170291234,N,Y,41.526385,-72.0803552
MLS Listing,,Single Family Residential,108 Krug Rd,Preston,CT,06365,374900,3,2.0,Preston,2374,49658,1987,5,158,,Active,,,http://www.redfin.com/CT/Preston/108-Krug-Rd-06365/home/54045767,Smart MLS,170291216,N,Y,41.54287,-71.9802601
MLS Listing,,Single Family Residential,8 Seabury Ave,Ledyard,CT,06339,319900,4,3.0,Parsonage Hill Manor,2793,56628,1979,5,115,,Active,,,http://www.redfin.com/CT/Ledyard/8-Seabury-Ave-06339/home/54196057,Smart MLS,170290340,N,Y,41.4563536,-72.0087364
MLS Listing,,Single Family Residential,80 Ekonk Hill Rd,Voluntown,CT,06384,179900,3,1.0,Voluntown,1092,21780,1956,5,165,,Active,,,http://www.redfin.com/CT/Voluntown/80-Ekonk-Hill-Rd-06384/home/53791307,RIS,1252532,N,Y,41.580608,-71.8531724
MLS Listing,,Single Family Residential,28 Diamond Hill Dr,Salem,CT,06420,482500,3,3.5,Salem,2916,86248,2016,6,165,,Active,,,http://www.redfin.com/CT/Salem/28-Diamond-Hill-Rd-06420/home/54361532,Smart MLS,170287882,N,Y,41.4607393,-72.234112
MLS Listing,,Single Family Residential,1 Mayfair Dr,Waterford,CT,06385,409000,4,2.5,Great Neck,2100,50093,1987,6,195,8,Active,,,http://www.redfin.com/CT/Waterford/1-Mayfair-Dr-06385/home/54093965,Smart MLS,170289846,N,Y,41.318845,-72.1154407
MLS Listing,,Single Family Residential,11 Pinecrest Ct,Norwich,CT,06360,229900,3,2.0,East Great Plains,1302,12196,1959,6,177,,Active,,,http://www.redfin.com/CT/Norwich/11-Pinecrest-Ct-06360/home/53939316,Smart MLS,170271125,N,Y,41.517924,-72.1004905
MLS Listing,,Single Family Residential,16 Holly Bush Ln,Norwich,CT,06360,329900,4,3.5,Norwichtown,3401,20037,2003,6,97,,Active,,,http://www.redfin.com/CT/Norwich/16-Holly-Bush-Ln-06360/home/53934375,Smart MLS,170290518,N,Y,41.5472024,-72.0855032
MLS Listing,,Single Family Residential,634 Hopeville Rd #45,Griswold,CT,06351,17000,2,1.0,Hopeville,924,,1983,6,18,,Active,,,http://www.redfin.com/CT/Griswold/634-Hopeville-Rd-06351/unit-45/home/53857890,Smart MLS,170290610,N,Y,41.6152358,-71.9499404
MLS Listing,,Single Family Residential,7 Ortega Dr,Preston,CT,06365,325000,4,3.0,Preston,2188,52272,1968,6,149,,Active,,,http://www.redfin.com/CT/Preston/7-Ortega-Dr-06365/home/54046601,Smart MLS,170291001,N,Y,41.4965343,-72.0008652
MLS Listing,,Single Family Residential,62 Colchester Cmns,Colchester,CT,06415,99900,2,2.0,Colchester,951,,1985,6,105,400,Active,,,http://www.redfin.com/CT/Colchester/62-Colchester-Cmns-06415/home/54246533,Smart MLS,170290950,N,Y,41.590832,-72.290784
MLS Listing,,Single Family Residential,0 Hobbs Is,Groton,CT,06340,499900,1,1.0,Groton,971,25700,1977,6,515,,Active,,,http://www.redfin.com/CT/Jupiter-Point/Hobbs-IS-06340/home/171437468,Smart MLS,170289749,N,Y,41.322597,-72.076234
MLS Listing,,Single Family Residential,49 S Washington Ave,East Lyme,CT,06357,450000,4,2.0,Crescent Beach,1490,4791,1953,6,302,17,Active,,,http://www.redfin.com/CT/Niantic/49-S-Washington-Ave-06357/home/54378368,Smart MLS,170290841,N,Y,41.3138732,-72.2044777
MLS Listing,,Single Family Residential,158 New London Tpke,Stonington,CT,06355,339000,4,2.0,Mystic,1684,37461,1986,7,201,,Active,,,http://www.redfin.com/CT/Mystic/158-New-London-Tpke-06355/home/53853349,Smart MLS,170290524,N,Y,41.4017892,-71.9504381
MLS Listing,,Single Family Residential,3 Cutler St #3,New London,CT,06320,115000,3,2.0,New London,1542,,1989,7,75,,Active,,,http://www.redfin.com/CT/New-London/3-Cutler-St-06320/unit-3/home/171434284,Smart MLS,170290539,N,Y,41.3486891,-72.110231
MLS Listing,,Vacant Land,0 Cove Rd,Lyme,CT,06371,249000,,,Hamburg,,147232,,7,,,Active,,,http://www.redfin.com/CT/LYME/COVE-RD-06371/home/54048161,Smart MLS,170290345,N,Y,41.380155,-72.352462
MLS Listing,,Condo/Co-op,48 Kings Hwy #404,Ledyard,CT,06335,79000,2,1.0,Ledyard,826,,2004,7,96,300,Active,,,http://www.redfin.com/CT/Gales-Ferry/48-Kings-Hwy-06335/unit-404/home/54195069,Smart MLS,170290609,N,Y,41.4215475,-72.076676
MLS Listing,,Single Family Residential,600 West Rd,Salem,CT,06420,294800,3,2.5,Witch Meadow,1968,92782,2020,7,150,,Active,,,http://www.redfin.com/CT/Salem/600-West-Rd-06420/home/54360413,Smart MLS,170290724,N,Y,41.5028343,-72.3109068
MLS Listing,,Single Family Residential,65 Rogers Lake Trl,Old Lyme,CT,06371,289900,3,1.5,Rogers Lake,1500,20037,1953,7,193,20,Active,,,http://www.redfin.com/CT/Old-Lyme/65-Rogers-Lake-Trl-06371/home/54444836,Smart MLS,170290717,N,Y,41.3556266,-72.3033854
MLS Listing,,Condo/Co-op,41 Palmer St #6,Norwich,CT,06360,135000,3,2.5,Norwich,1230,,2007,7,110,110,Active,,,http://www.redfin.com/CT/Norwich/41-Palmer-St-06360/unit-6/home/53934732,Smart MLS,170290578,N,Y,41.5235271,-72.0597832
MLS Listing,,Single Family Residential,336 Vauxhall St,New London,CT,06320,182900,3,3.0,New London,2060,11761,1890,7,89,,Active,,,http://www.redfin.com/CT/New-London/336-Vauxhall-St-06320/home/53741275,Smart MLS,170290567,N,Y,41.3666508,-72.1153018
MLS Listing,,Condo/Co-op,15 Crown Knoll Ct #34,Groton,CT,06340,149000,2,2.0,Poquonock Bridge,1076,,1990,7,138,,Active,,,http://www.redfin.com/CT/Groton/15-Crown-Knoll-Ct-06340/unit-34/home/54184814,Smart MLS,170290398,N,Y,41.3670451,-72.0550896
MLS Listing,,Multi-Family (2-4 Unit),77 Liberty St,Stonington,CT,06379,235000,5,2.0,Pawcatuck,2244,3484,1929,7,105,,Active,,,http://www.redfin.com/CT/Pawcatuck/77-Liberty-St-06379/home/53849806,Smart MLS,170290395,N,Y,41.3810402,-71.8388579
MLS Listing,,Single Family Residential,98 Plant St,New London,CT,06320,214900,3,1.5,New London,1572,6098,1938,8,137,,Active,,,http://www.redfin.com/CT/New-London/98-Plant-St-06320/home/53737639,Smart MLS,170290499,N,Y,41.330117,-72.0995185
MLS Listing,,Single Family Residential,235 Great Neck Rd,Waterford,CT,06385,849000,3,2.5,Strand,2661,53578,1930,8,319,,Active,,,http://www.redfin.com/CT/Waterford/235-Great-Neck-Rd-06385/home/54098673,Smart MLS,170287022,N,Y,41.304629,-72.1236792
MLS Listing,,Vacant Land,13 Gulliver Cir,Norwich,CT,06360,25999,,,Norwichtown,,30491,,8,,,Active,,,http://www.redfin.com/CT/Norwich/13-Gulliver-Cir-06360/home/53928739,Smart MLS,170290484,N,Y,41.5569081,-72.0894189
MLS Listing,,Vacant Land,151-2 Mitchell Hill Rd #2,Lyme,CT,06371,299000,,,Hadlyme,,882525,,8,,,Active,,,http://www.redfin.com/CT/Lyme/151-Mitchell-Hill-Rd-06371/unit-2/home/160759528,Smart MLS,170290451,N,Y,41.4135525,-72.3870455
MLS Listing,,Single Family Residential,72 Witch Meadow Rd,Salem,CT,06420,446000,3,2.5,Salem,3005,94089,2002,8,148,,Active,,,http://www.redfin.com/CT/Salem/72-Witch-Meadow-Rd-06420/home/54360371,Smart MLS,170281002,N,Y,41.5007944,-72.2889539
MLS Listing,,Single Family Residential,20 Village Dr,Ledyard,CT,06339,224900,3,2.0,Ledyard,1382,16117,1962,9,163,,Active,,,http://www.redfin.com/CT/Ledyard/20-Village-Dr-06339/home/54196389,Smart MLS,170290276,N,Y,41.4512877,-72.0144314
MLS Listing,,Condo/Co-op,111 Horse Pond Rd Unit A,Salem,CT,06420,44900,2,1.0,Salem,840,,1989,9,53,283,Active,,,http://www.redfin.com/CT/Salem/111-Horse-Pond-Rd-06420/unit-A/home/54361605,Smart MLS,170290342,N,Y,41.4644473,-72.2452382
MLS Listing,,Single Family Residential,375 Gay Hill Rd,Montville,CT,06382,279900,3,2.0,Uncasville,1500,118483,1955,9,187,,Active,,,http://www.redfin.com/CT/Uncasville/375-Gay-Hill-Rd-06382/home/54017413,Smart MLS,170290324,N,Y,41.4415406,-72.1425619
MLS Listing,,Single Family Residential,64 Oakwood Rd,East Lyme,CT,06357,448000,3,2.0,Giants Neck,1350,10454,2019,9,332,10,Active,,,http://www.redfin.com/CT/Niantic/64-Oakwood-Rd-06357/home/54383235,Smart MLS,170290304,N,Y,41.3067306,-72.2301967
MLS Listing,,Condo/Co-op,3 Windfall Ln #3,East Lyme,CT,06357,369900,3,2.5,Niantic,2432,,2001,9,152,375,Active,,,http://www.redfin.com/CT/Niantic/3-Windfall-Ln-06357/unit-3/home/54383382,Smart MLS,170289559,N,Y,41.3562106,-72.2061879
MLS Listing,,Single Family Residential,120 E Shore Dr,East Haddam,CT,06423,259800,3,2.0,Lake Hayward,1510,42688,1992,10,172,,Active,,,http://www.redfin.com/CT/East-Haddam/120-E-Shore-Dr-06423/home/53784108,Smart MLS,170290036,N,Y,41.5158516,-72.32258
MLS Listing,,Single Family Residential,10 Anguilla Brook Rd,Stonington,CT,06379,294900,3,2.0,Pawcatuck,1338,40075,1986,10,220,,Active,,,http://www.redfin.com/CT/Pawcatuck/10-Anguilla-Brook-Rd-06379/home/53854100,Smart MLS,170290264,N,Y,41.3831859,-71.8735081
MLS Listing,,Single Family Residential,22 Devonshire Dr,Waterford,CT,06385,219900,3,2.5,Fog Plain,1136,20037,1982,10,194,,Active,,,http://www.redfin.com/CT/Waterford/22-Devonshire-Dr-06385/home/54096480,Smart MLS,170290180,N,Y,41.3582234,-72.1404331
MLS Listing,,Single Family Residential,257 Broadway,Norwich,CT,06360,189900,4,4.0,Norwich,4542,28749,1850,10,42,,Active,,,http://www.redfin.com/CT/Norwich/257-Broadway-06360/home/53935142,Smart MLS,170289909,N,Y,41.5340571,-72.0800775
MLS Listing,,Single Family Residential,6 Corsino Ave,Old Lyme,CT,06371,379000,3,2.0,Miami Beach,1266,13939,1970,10,299,42,Active,,,http://www.redfin.com/CT/Old-Lyme/6-Corsino-Ave-06371/home/54446041,Smart MLS,170290052,N,Y,41.2898311,-72.2806739
MLS Listing,,Single Family Residential,11 Oak Rd,Waterford,CT,06385,365000,3,2.5,Waterford,2400,11325,2020,10,152,,Active,,,http://www.redfin.com/CT/Waterford/11-Oak-Rd-06385/home/54093021,Smart MLS,170290124,N,Y,41.31379,-72.142695
MLS Listing,,Single Family Residential,46 Myrock Ave,Waterford,CT,06385,169900,3,1.0,Waterford,1164,10018,1955,10,146,,Active,,,http://www.redfin.com/CT/Waterford/46-Myrock-Ave-06385/home/54094677,Smart MLS,170289877,N,Y,41.3380357,-72.1150704
MLS Listing,,Vacant Land,335 Boston Post Rd,Old Lyme,CT,06371,495000,,,Old Lyme,,1816452,,10,,,Active,,,http://www.redfin.com/CT/Old-Lyme/335-Boston-Post-Rd-06371/home/109643703,Smart MLS,170289861,N,Y,41.3422842,-72.2730686
MLS Listing,,Single Family Residential,19 Sunset Vw,Griswold,CT,06351,305900,3,2.5,Pachaug,1870,40075,2001,11,164,,Active,,,http://www.redfin.com/CT/Griswold/19-Sunset-Vw-06351/home/53858066,Smart MLS,170290051,N,Y,41.5696096,-71.8940277
MLS Listing,,Condo/Co-op,184 Pequot Ave #104,New London,CT,06320,165900,2,2.0,Green's Harbor Beach,776,,1962,11,214,496,Active,,,http://www.redfin.com/CT/New-London/184-Pequot-Ave-06320/unit-104/home/53736270,Smart MLS,170290021,N,Y,41.3362792,-72.0994838
MLS Listing,,Single Family Residential,4 Branch Hill Rd,Preston,CT,06365,349900,4,2.5,Preston,2079,93218,2020,11,168,,Active,,,http://www.redfin.com/CT/Preston/4-Branch-Hill-Rd-06365/home/156296830,Smart MLS,170289956,N,Y,41.503053,-71.9983722
MLS Listing,,Single Family Residential,129 Lakeside Dr,Lebanon,CT,06249,185000,2,1.0,Lebanon,648,18295,1961,11,285,25,Active,,,http://www.redfin.com/CT/Lebanon/129-Lakeside-Dr-06249/home/54440324,Smart MLS,170273587,N,Y,41.5535145,-72.2319144
MLS Listing,,Single Family Residential,37 Beckwith St,Norwich,CT,06360,185000,2,1.0,Norwich,1076,8712,1926,11,172,,Active,,,http://www.redfin.com/CT/Norwich/37-Beckwith-St-06360/home/53939033,Smart MLS,170289064,N,Y,41.5194609,-72.0918464
MLS Listing,,Single Family Residential,86 Smith Ave,Norwich,CT,06360,165000,3,2.0,Greenville,1853,16552,1880,11,89,,Active,,,http://www.redfin.com/CT/Norwich/86-Smith-Ave-06360/home/53928391,Smart MLS,170289816,N,Y,41.5325621,-72.0488766
MLS Listing,,Vacant Land,15 Rocco Dr,East Lyme,CT,06333,134900,,,East Lyme,,378536,,11,,83,Active,,,http://www.redfin.com/CT/East-Lyme/15-Rocco-Dr-06333/home/54377065,Smart MLS,170289947,N,Y,41.3963199,-72.2179227
MLS Listing,,Vacant Land,3-B Gates Farm Rd,Lebanon,CT,06249,75000,,,Lebanon,,259182,,11,,,Active,,,http://www.redfin.com/CT/Lebanon/3-Gates-Farm-Rd-06249/home/169464544,Smart MLS,170289939,N,Y,41.6880953,-72.2028248
MLS Listing,,Single Family Residential,45 Myrtle Rd,Griswold,CT,06351,334900,2,2.0,Pachaug,2275,16552,1962,11,147,,Active,,,http://www.redfin.com/CT/Griswold/45-Myrtle-Rd-06351/home/53858949,Smart MLS,170289780,N,Y,41.5631035,-71.8951394
MLS Listing,,Single Family Residential,127 Windham Ave,Colchester,CT,06415,219900,3,2.0,Colchester,1344,20037,1880,11,164,,Active,,,http://www.redfin.com/CT/Colchester/127-Windham-Ave-06415/home/54243746,Smart MLS,170289820,N,Y,41.58328,-72.3265575
MLS Listing,,Single Family Residential,719 Ekonk Hill Rd,Voluntown,CT,06384,149900,3,2.0,Voluntown,1411,130244,1952,12,106,,Active,,,http://www.redfin.com/CT/Voluntown/719-Ekonk-Hill-Rd-06384/home/52230809,Smart MLS,170289767,N,Y,41.6201018,-71.8439538
MLS Listing,,Vacant Land,1 Egret Rd,Stonington,CT,06355,345500,,,Masons Island,,30927,,12,,,Active,,,http://www.redfin.com/CT/Mystic/1-Egret-Rd-06355/home/53850795,Smart MLS,170288315,N,Y,41.337946,-71.966297
MLS Listing,,Single Family Residential,8 Lena Dr,Montville,CT,06382,290000,4,2.5,Raymond Hill,1728,40075,1979,12,168,,Active,,,http://www.redfin.com/CT/Uncasville/8-Lena-Dr-06382/home/54017956,Smart MLS,170289613,N,Y,41.4658072,-72.1275206
MLS Listing,,Vacant Land,9 Egret Rd,Stonington,CT,06355,379000,,,Masons Island,,31363,,12,,,Active,,,http://www.redfin.com/CT/Mystic/9-Egret-Rd-06355/home/53850793,Smart MLS,170288325,N,Y,41.338745,-71.965255
MLS Listing,,Vacant Land,23 Cormorant Rd,Stonington,CT,06355,375000,,,Masons Island,,27878,,12,,25,Active,,,http://www.redfin.com/CT/Mystic/23-Cormorant-Rd-06355/home/144534911,Smart MLS,170288329,N,Y,41.3373909,-71.965704
MLS Listing,,Vacant Land,7 Egret Rd,Stonington,CT,06355,345500,,,Masons Island,,30491,,12,,25,Active,,,http://www.redfin.com/CT/Mystic/7-Egret-Rd-06355/home/53850797,Smart MLS,170288320,N,Y,41.338684,-71.9659549
MLS Listing,,Single Family Residential,413 Greenhaven Rd,Stonington,CT,06379,389000,4,3.0,Pawcatuck,3060,37897,1971,12,127,,Active,,,http://www.redfin.com/CT/Pawcatuck/413-Greenhaven-Rd-06379/home/53848065,Smart MLS,170289261,N,Y,41.347533,-71.8440001
MLS Listing,,Single Family Residential,16 Watrous Ave,Norwich,CT,06360,129900,3,1.0,Laurel Hill,1325,10454,1890,12,98,,Active,,,http://www.redfin.com/CT/Norwich/16-Watrous-Ave-06360/home/53930507,Smart MLS,170289078,N,Y,41.5085289,-72.0744764
MLS Listing,,Single Family Residential,2 Foot Ct,Waterford,CT,06385,369000,4,2.5,Governor's Landing,1974,17424,1973,12,187,4,Active,,,http://www.redfin.com/CT/Waterford/2-Foot-Ct-06385/home/54094464,Smart MLS,170289005,N,Y,41.334707,-72.1431636
MLS Listing,,Single Family Residential,522 Fitch Hill Rd,Montville,CT,06382,249900,3,2.0,Uncasville,2290,40075,1951,12,109,,Active,,,http://www.redfin.com/CT/Montville/522-Fitch-Hill-Rd-06382/home/54022060,Smart MLS,170289565,N,Y,41.4761522,-72.1403405
MLS Listing,,Single Family Residential,512 & 499 Route 164,Preston,CT,06365,1950000,5,1.0,Preston,2400,9866340,1790,13,813,,Active,,,http://www.redfin.com/CT/Preston/499-Connecticut-164-06365/home/170016672,Smart MLS,170289399,N,Y,41.5522778,-71.9756241
MLS Listing,,Multi-Family (2-4 Unit),17 Grove St,Norwich,CT,06360,130000,0,,Norwich,3046,6534,1880,13,43,,Active,,,http://www.redfin.com/CT/Norwich/17-Grove-St-06360/home/53929043,Smart MLS,170289395,N,Y,41.5310373,-72.0724108
MLS Listing,,Single Family Residential,34 Maple Ave,Montville,CT,06382,279900,4,1.5,Uncasville,1796,68389,1930,13,156,,Active,,,http://www.redfin.com/CT/Montville/34-Maple-Ave-06382/home/54019205,Smart MLS,170289161,N,Y,41.4356015,-72.1137282
MLS Listing,,Single Family Residential,11 Green Briar Rd,Norwich,CT,06360,225000,3,1.5,Cherry Hill,1648,18730,1964,14,137,,Active,,,http://www.redfin.com/CT/Norwich/11-Green-Briar-Rd-06360/home/53933243,Smart MLS,170289370,N,Y,41.526727,-72.1075767
MLS Listing,,Condo/Co-op,97 W Main St #80,East Lyme,CT,06357,218000,2,2.5,Niantic,1488,,1984,14,147,395,Active,,,http://www.redfin.com/CT/Niantic/97-W-Main-St-06357/unit-80/home/54379164,Smart MLS,170289361,N,Y,41.3204871,-72.215515
