SALE TYPE,SOLD DATE,PROPERTY TYPE,ADDRESS,CITY,STATE OR PROVINCE,ZIP OR POSTAL CODE,PRICE,BEDS,BATHS,LOCATION,SQUARE FEET,LOT SIZE,YEAR BUILT,DAYS ON MARKET,$/SQUARE FEET,HOA/MONTH,STATUS,NEXT OPEN HOUSE START TIME,NEXT OPEN HOUSE END TIME,URL (SEE http://www.redfin.com/buy-a-home/comparative-market-analysis FOR INFO ON PRICING),SOURCE,MLS#,FAVORITE,INTERESTED,LATITUDE,LONGITUDE
MLS Listing,,Vacant Land,12 Gardiner Dr,Londonderry,VT,05148,75000,,,Londonderry,,130680,,1,,,Active,,,http://www.redfin.com/VT/Londonderry/12-Gardiner-Dr-05148/home/171544485,NEREN,4803721,N,Y,43.224368538720725,-72.75034079785404
MLS Listing,,Single Family Residential,90 Fannie Hill Rd,Wilmington,VT,05363,1299900,5,4.0,Wilmington,3052,34848,2017,1,426,,Active,,,http://www.redfin.com/VT/Wilmington/90-Fannie-Hill-Dr-05363/home/171539402,NEREN,4803711,N,Y,42.925312,-72.889397
MLS Listing,,Vacant Land,11 Gardiner Dr,Londonderry,VT,05148,65000,,,Londonderry,,130680,,1,,,Active,,,http://www.redfin.com/VT/Londonderry/11-Gardiner-Dr-05148/home/171536189,NEREN,4803668,N,Y,43.223831261898795,-72.75123389438673
MLS Listing,,Single Family Residential,118 Valley Cemetery Rd,Athens,VT,05143,175000,4,1.0,Athens,1368,622908,1970,1,128,,Active,,,http://www.redfin.com/VT/Athens/118-Valley-Cemetery-Rd-05143/home/96590988,NEREN,4803612,N,Y,43.1043136,-72.5752688
MLS Listing,,Townhouse,66A Kingswood Rd,Dover,VT,05356,308000,3,3.0,Dover,2067,,2005,1,149,744,Active,,,http://www.redfin.com/VT/West-Dover/66-Kingswood-Rd-05356/unit-A/home/91238245,NEREN,4803608,N,Y,42.946048,-72.882257
MLS Listing,,Single Family Residential,11 Maple St,Brattleboro,VT,05301,224000,4,2.0,Brattleboro,1548,10454,1958,1,145,,Active,,,http://www.redfin.com/VT/Brattleboro/11-Maple-St-05301/home/91362237,NEREN,4803588,N,Y,42.8440254,-72.5636685
MLS Listing,,Single Family Residential,66 Western Ave,Brattleboro,VT,05301,139000,3,1.5,Brattleboro,1025,5227,1884,1,136,,Active,,,http://www.redfin.com/VT/Brattleboro/66-Western-Ave-05301/home/63509545,NEREN,4803579,N,Y,42.852205,-72.569073
MLS Listing,,Townhouse,2 Waldwinkle Rd Unit A,Dover,VT,05356,94900,2,1.0,Dover,717,69696,1967,1,132,350,Active,,,http://www.redfin.com/VT/West-Dover/2-Waldwinkle-Rd-05356/unit-A/home/91237976,NEREN,4803559,N,Y,42.932661,-72.849844
MLS Listing,,Single Family Residential,17 First Ln Unit 12,Wilmington,VT,05363,329900,4,6.75,Wilmington,2170,217800,1987,3,152,162,Active,,,http://www.redfin.com/VT/Wilmington/17-1st-Ln-05363/unit-12/home/144585056,NEREN,4803448,N,Y,42.897545,-72.887955
MLS Listing,,Single Family Residential,4535 Route 9 Rd,Marlboro,VT,05301,84900,3,1.5,Marlboro,2246,43560,1988,4,38,,Active,,,http://www.redfin.com/VT/Brattleboro/4535-VT-9-05301/home/91198682,NEREN,4803402,N,Y,42.863262,-72.75087
MLS Listing,,Condo/Co-op,761 Stratton Mountain Access Rd #326,Stratton,VT,05360,229900,1,1.0,Stratton,651,,2000,4,353,598,Active,,,http://www.redfin.com/VT/Stratton/761-Stratton-Mountain-Rd-05360/unit-326/home/107947549,NEREN,4803387,N,Y,43.113914,-72.904137
MLS Listing,,Single Family Residential,84 Allen Rd,Whitingham,VT,05342,41000,3,1.75,Whitingham,1100,130680,1974,4,37,,Active,,,http://www.redfin.com/VT/Jacksonville/84-Allen-Rd-05342/home/91224411,NEREN,4803386,N,Y,42.792622,-72.80683
MLS Listing,,Single Family Residential,871/873 Stratton Arlington Rd,Stratton,VT,05155,2995000,6,6.5,Stratton,8800,1393920,2016,4,340,,Active,,,http://www.redfin.com/VT/Stratton/873-Stratton-Arlington-Rd-05360/home/91357799,NEREN,4803359,N,Y,43.049307,-72.928008
MLS Listing,,Single Family Residential,4 Howard Ln,Dover,VT,05356,425000,4,3.5,Dover,3823,32670,1987,4,111,,Active,,,http://www.redfin.com/VT/West-Dover/4-Howard-Ln-05356/home/143338060,NEREN,4803291,N,Y,42.973641,-72.888806
MLS Listing,,Single Family Residential,24 Ellis Brook Rd,Dover,VT,05356,259000,3,2.0,Dover,1595,43560,1984,4,162,,Active,,,http://www.redfin.com/VT/West-Dover/24-Ellis-Brook-Rd-05356/home/91236467,NEREN,4803192,N,Y,42.952989,-72.845594
MLS Listing,,Vacant Land,0 W Wellington Hill Rd Unit 2 &3,Westminster,VT,05158,52000,,,Westminster,,193406,,5,,,Active,,,http://www.redfin.com/VT/Westminster/Wellington-Hill-Rd-E-05158/unit-2-3/home/171480647,NEREN,4803151,N,Y,43.077609665350366,-72.50363702812189
MLS Listing,,Vacant Land,W Wellington Hill Rd #3,Westminster,VT,05158,24000,,,Westminster,,96267,,5,,,Active,,,http://www.redfin.com/VT/Westminster/Wellington-Hill-Rd-W-05346/unit-3/home/171480414,NEREN,4803147,N,Y,43.077480822590985,-72.50367008749997
MLS Listing,,Vacant Land,W Wellington Hill Rd #2,Westminster,VT,05158,30000,,,Westminster,,96267,,5,,,Active,,,http://www.redfin.com/VT/Westminster/Wellington-Hill-Rd-W-05346/unit-2/home/171480111,NEREN,4803146,N,Y,43.077402455821016,-72.50367008749998
MLS Listing,,Single Family Residential,1505 E Hill Rd,Wardsboro,VT,05355,169000,3,1.0,Wardsboro,1053,1724976,1960,5,160,,Active,,,http://www.redfin.com/VT/Wardsboro/1505-E-Hill-Rd-05355/home/171475869,NEREN,4803087,N,Y,43.050358,-72.765137
MLS Listing,,Single Family Residential,134 Quails Hill Rd,Brattleboro,VT,05301,439000,3,2.5,Brattleboro,3685,130680,1994,5,119,,Active,,,http://www.redfin.com/VT/Brattleboro/134-Quails-Hill-Rd-05301/home/95121955,NEREN,4803037,N,Y,42.84816,-72.621446
MLS Listing,,Single Family Residential,1042 Green River Rd,Halifax,VT,05358,239000,3,1.5,Halifax,1985,43560,1840,5,120,,Active,,,http://www.redfin.com/VT/Guilford/1042-Green-River-Rd-05301/home/96588493,NEREN,4803007,N,Y,42.815378,-72.742616
MLS Listing,,Vacant Land,47 Locust Hts,Dover,VT,05341,99000,,,Dover,,1569466,,5,,,Active,,,http://www.redfin.com/VT/East-Dover/47-Locust-Hts-05341/home/91236173,NEREN,4802984,N,Y,42.963393,-72.782348
MLS Listing,,Single Family Residential,230 Smead Rd,Wardsboro,VT,05355,175000,3,1.5,Wardsboro,1448,140698,1965,7,121,,Active,,,http://www.redfin.com/VT/Wardsboro/230-Smead-Rd-05355/home/143179357,NEREN,4802744,N,Y,43.0313486,-72.8474515
MLS Listing,,Single Family Residential,1211 Hatch School Rd,Brattleboro,VT,05301,109500,3,1.0,Brattleboro,1400,453024,1973,7,78,,Active,,,http://www.redfin.com/VT/Brattleboro/1211-Hatch-School-Rd-05301/home/91365754,NEREN,4802743,N,Y,42.823683,-72.782486
MLS Listing,,Single Family Residential,40 Twin Brook Rd Unit (M650),Wilmington,VT,05363,269000,4,2.25,Wilmington,2154,21780,1981,8,125,102,Active,,,http://www.redfin.com/VT/Wilmington/40-Twin-Brook-Rd-05363/unit-M650/home/171432935,NEREN,4802658,N,Y,42.88752,-72.895615
MLS Listing,,Single Family Residential,21 Sherwood Cir,Brattleboro,VT,05301,188000,3,1.5,Brattleboro,1700,22215,1994,8,111,,Active,,,http://www.redfin.com/VT/Brattleboro/21-Sherwood-Cir-05301/home/81043412,NEREN,4802651,N,Y,42.8636391,-72.6203143
MLS Listing,,Single Family Residential,18 Central St,Brattleboro,VT,05301,219000,3,1.5,Brattleboro,1927,3920,1880,8,114,,Active,,,http://www.redfin.com/VT/Brattleboro/18-Central-St-05301/home/95122111,NEREN,4802640,N,Y,42.84709,-72.55835
MLS Listing,,Single Family Residential,42 Tucker Reed Rd,Dummerston,VT,05301,599000,4,2.5,Dummerston,4100,1653537,2000,8,146,,Active,,,http://www.redfin.com/VT/Dummerston/42-Tucker-Reed-Rd-05301/home/91418704,NEREN,4802635,N,Y,42.917043,-72.553667
MLS Listing,,Single Family Residential,379 Waterman Rd,Dummerston,VT,05346,395000,3,2.5,Dummerston,2800,74052,2010,8,141,,Active,,,http://www.redfin.com/VT/Putney/379-Waterman-Rd-05346/home/91418834,NEREN,4802634,N,Y,42.961964,-72.537987
MLS Listing,,Single Family Residential,205 Wiswall Hill Rd,Newfane,VT,05345,95000,1,0.75,Newfane,653,21780,1960,8,145,,Active,,,http://www.redfin.com/VT/Newfane/205-Wiswall-Hill-Rd-05345/home/91373807,NEREN,4802604,N,Y,43.010612,-72.67485
MLS Listing,,Vacant Land,00 School Marm Ln,Townshend,VT,05353,129000,,,Townshend,,348480,,9,,,Active,,,http://www.redfin.com/VT/Townshend/School-Marm-Ln-05353/home/63530255,NEREN,4802527,N,Y,43.02618481427675,-72.64367424316401
MLS Listing,,Single Family Residential,114 Brophy Ln,Londonderry,VT,05148,199500,3,1.75,Londonderry,1282,43560,1986,10,156,,Active,,,http://www.redfin.com/VT/Londonderry/114-Brophy-Ln-05148/home/91243642,NEREN,4802454,N,Y,43.233144,-72.842473
MLS Listing,,Condo/Co-op,5F Northbrook Village Way Unit E-16,Dover,VT,05356,229000,2,1.75,Dover,1040,1176120,1986,10,220,495,Active,,,http://www.redfin.com/VT/West-Dover/5-Northbrook-Village-Rd-05356/unit-E-16/home/171421913,NEREN,4802440,N,Y,42.963555,-72.891539
MLS Listing,,Condo/Co-op,5E Northbrook Village Way Unit E-15,Dover,VT,05356,224000,2,1.75,Dover,1040,1176120,1986,10,215,495,Active,,,http://www.redfin.com/VT/West-Dover/5-Northbrook-Village-Rd-05356/unit-E-15/home/171421912,NEREN,4802439,N,Y,42.963555,-72.891539
MLS Listing,,Single Family Residential,931 Grassy Brook Rd,Brookline,VT,05345,180000,1,0.75,Brookline,792,43560,1950,11,227,,Active,,,http://www.redfin.com/VT/Brookline/931-Grassy-Brook-Rd-05345/home/90397279,NEREN,4802399,N,Y,43.035099,-72.600029
MLS Listing,,Condo/Co-op,9J Snow Tree Ln,Dover,VT,05356,84800,1,1.5,Dover,664,435,1984,11,128,295,Active,,,http://www.redfin.com/VT/West-Dover/9-Snow-Tree-Ln-05356/home/91238081,NEREN,4802383,N,Y,42.968062,-72.891397
MLS Listing,,Townhouse,4 B Dover Green Loop,Dover,VT,05356,123000,2,2.0,Dover,1248,,1983,11,99,270,Active,,,http://www.redfin.com/VT/West-Dover/4-Dover-Green-Loop-05356/unit-C/home/91236414,NEREN,4802324,N,Y,42.931695,-72.850018
MLS Listing,,Single Family Residential,160 Maple St,Brattleboro,VT,05301,250000,3,1.75,Brattleboro,1586,10890,1914,11,158,,Active,,,http://www.redfin.com/VT/Brattleboro/160-Maple-St-05301/home/91361421,NEREN,4802278,N,Y,42.84441,-72.56902
MLS Listing,,Single Family Residential,8 Oak St,Rockingham,VT,05101,189000,3,1.75,Rockingham,1629,15681,1905,11,116,,Active,,,http://www.redfin.com/VT/Bellows-Falls/8-Oak-St-05101/home/91318794,NEREN,4802276,N,Y,43.1340879,-72.4496466
MLS Listing,,Single Family Residential,163 Minor Rd,Wilmington,VT,05363,319000,4,2.0,Wilmington,2400,435600,1990,12,133,,Active,,,http://www.redfin.com/VT/Wilmington/163-Minor-Rd-05363/home/91270097,NEREN,4802196,N,Y,42.828728,-72.840126
MLS Listing,,Vacant Land,0 Town Hill Rd,Wolcott,VT,05680,45000,,,Wolcott,,222155,,12,,,Active,,,http://www.redfin.com/VT/Wolcott/Town-Hill-Rd-05680/home/91224071,NEREN,4802189,N,Y,42.785639,-72.86914
MLS Listing,,Condo/Co-op,16 Obertal Dr Unit E-31,Stratton,VT,05155,434000,2,2.0,Stratton,1030,3484,1984,12,421,583,Active,,,http://www.redfin.com/VT/Stratton/16-Ober-Tal-Dr-05360/unit-E-31/home/171406963,NEREN,4802187,N,Y,43.1115343,-72.9021756
MLS Listing,,Single Family Residential,20 Gordon Hts,Westminster,VT,05158,300000,3,2.25,Westminster,2276,400751,1983,13,132,,Active,,,http://www.redfin.com/VT/Westminster/20-Gordon-Hts-05158/home/171396012,NEREN,4802069,N,Y,43.119377,-72.517326
MLS Listing,,Single Family Residential,378 Our Rd,Westminster,VT,05158,250000,3,1.5,Westminster,1744,143748,1974,13,143,,Active,,,http://www.redfin.com/VT/Westminster/378-Our-RD-05158/home/171394883,NEREN,4802027,N,Y,43.11660016833338,-72.53840455952455
