SALE TYPE,SOLD DATE,PROPERTY TYPE,ADDRESS,CITY,STATE OR PROVINCE,ZIP OR POSTAL CODE,PRICE,BEDS,BATHS,LOCATION,SQUARE FEET,LOT SIZE,YEAR BUILT,DAYS ON MARKET,$/SQUARE FEET,HOA/MONTH,STATUS,NEXT OPEN HOUSE START TIME,NEXT OPEN HOUSE END TIME,URL (SEE http://www.redfin.com/buy-a-home/comparative-market-analysis FOR INFO ON PRICING),SOURCE,MLS#,FAVORITE,INTERESTED,LATITUDE,LONGITUDE
MLS Listing,,Single Family Residential,4 Old Plate Rd,Wareham,MA,02576,479900,4,3.5,West Wareham,2600,46609,1989,4,185,,Active,,,http://www.redfin.com/MA/West-Wareham/4-Old-Plate-Rd-02576/home/16444571,MLS PIN,72650266,N,Y,41.7851699,-70.7578236
MLS Listing,,Single Family Residential,84 Hayward St,Halifax,MA,02338,415000,3,2.0,Halifax,1969,41038,1978,6,211,,Active,,,http://www.redfin.com/MA/Halifax/84-Hayward-St-02338/home/14807153,MLS PIN,72648894,N,Y,41.9664008,-70.8566589
MLS Listing,,Single Family Residential,1591 Main St,Marshfield,MA,02050,424999,4,2.0,Marshfield,2004,102802,1968,18,212,,Active,,,http://www.redfin.com/MA/Marshfield/1591-Main-St-02050/home/16388792,MLS PIN,72645077,N,Y,42.1388839,-70.7435629
Redfin Data,,Single Family Residential,20 Connecticut Pl,Brockton,MA,02301,285000,3,1.0,Brockton,1270,5420,1972,1,224,,Pre On-Market,,,http://www.redfin.com/MA/Brockton/20-Connecticut-Pl-02301/home/16318737,Coming Soon,55105,N,Y,42.0760574,-71.0293128
MLS Listing,,Single Family Residential,270 Boylston St,Brockton,MA,02301,349900,5,2.0,Brockton,1860,7527,1940,1,188,,Active,,,http://www.redfin.com/MA/Brockton/270-Boylston-St-02301/home/16325254,MLS PIN,72651538,N,Y,42.0755186,-71.0346175
MLS Listing,,Single Family Residential,13 Agawam Lake Shore Dr,Wareham,MA,02571,389900,2,1.5,Wareham,1396,4775,2005,1,279,,Active,,,http://www.redfin.com/MA/Wareham/13-Lake-Shore-Dr-02571/home/16446591,MLS PIN,72651471,N,Y,41.7693469,-70.676228
MLS Listing,,Single Family Residential,16 jefferson Ave,Marshfield,MA,02050,799999,3,3.5,Marshfield,4257,209088,1999,1,188,,Active,,,http://www.redfin.com/MA/Marshfield/16-Jefferson-Rd-02050/home/16384839,MLS PIN,72651367,N,Y,42.0780029,-70.6691034
MLS Listing,,Single Family Residential,200 Myrtle St,Brockton,MA,02301,269900,3,1.5,Brockton,1675,8612,1958,1,161,,Active,,,http://www.redfin.com/MA/Brockton/200-Myrtle-St-02301/home/16331121,MLS PIN,72651441,N,Y,42.0686169,-71.029603
MLS Listing,,Single Family Residential,30&30B Doten Rd,Plymouth,MA,02360,924900,4,2.0,Chiltonville,2756,120661,1965,1,336,,Active,,,http://www.redfin.com/MA/Plymouth/30-Doten-Rd-02360/home/16419304,MLS PIN,72651410,N,Y,41.9293776,-70.6074119
MLS Listing,,Multi-Family (2-4 Unit),86 Summer St,Brockton,MA,02302,650000,7,2.0,Brockton,3438,9396,2020,1,189,,Active,,,http://www.redfin.com/MA/Brockton/86-Summer-St-02302/home/16320371,MLS PIN,72651401,N,Y,42.0776704,-71.0075593
MLS Listing,,Single Family Residential,1057 Whitman St,Hanson,MA,02341,281300,3,2.0,Hanson,2728,30013,1965,1,103,,Active,,,http://www.redfin.com/MA/Hanson/1057-Whitman-St-02341/home/16357553,MLS PIN,72651388,N,Y,42.0802676,-70.9014341
MLS Listing,,Single Family Residential,713 Broadway,Hanover,MA,02339,669900,4,3.0,Hanover,2540,63598,1953,1,264,,Active,,,http://www.redfin.com/MA/Hanover/713-Broadway-02339/home/16352095,MLS PIN,72651377,N,Y,42.1062227,-70.8357328
MLS Listing,,Condo/Co-op,227 W Elm St #5,Brockton,MA,02301,199900,2,2.0,Brockton,1025,,2000,1,195,335,Active,,,http://www.redfin.com/MA/Brockton/227-W-Elm-St-02301/unit-5/home/16338037,MLS PIN,72651374,N,Y,42.0818751,-71.0287845
MLS Listing,,Single Family Residential,130 Main St,Hull,MA,02045,729000,3,2.5,Hull,2235,5647,2004,1,326,,Active,,,http://www.redfin.com/MA/Hull/130-Main-St-02045/home/16370339,MLS PIN,72651373,N,Y,42.304768,-70.91609
MLS Listing,,Single Family Residential,143 Sproat St,Middleboro,MA,02346,330000,4,2.0,Middleboro,2884,12632,1910,1,114,,Active,,,http://www.redfin.com/MA/Middleborough/143-Sproat-St-02346/home/16396579,MLS PIN,72651372,N,Y,41.8978469,-70.9153579
MLS Listing,,Multi-Family (2-4 Unit),55 Tribou St,Brockton,MA,02301,459900,7,3.0,Brockton,2482,3341,1889,1,185,,Active,May-9-2020 11:00 AM,May-9-2020 01:30 PM,http://www.redfin.com/MA/Brockton/55-Tribou-St-02301/home/16317550,MLS PIN,72651369,N,Y,42.0688705,-71.0201774
MLS Listing,,Condo/Co-op,30 Surrey Ln #30,East Bridgewater,MA,02333,415000,3,2.5,East Bridgewater,2170,,2014,1,191,380,Active,,,http://www.redfin.com/MA/East-Bridgewater/30-Surrey-Ln-02333/unit-30/home/45527133,MLS PIN,72651358,N,Y,42.0580665,-70.9482447
MLS Listing,,Single Family Residential,201 W Chestnut St,Brockton,MA,02301,399900,3,1.5,Brockton,1672,8220,1993,1,239,,Active,,,http://www.redfin.com/MA/Brockton/201-W-Chestnut-St-02301/home/16324478,MLS PIN,72651328,N,Y,42.0624257,-71.0248206
MLS Listing,,Mobile/Manufactured Home,2 Bayberry Ln,Plymouth,MA,02360,65900,2,1.0,Pinehurst Village,1000,,1972,1,66,550,Active,,,http://www.redfin.com/MA/Plymouth/2-Bayberry-Ln-02360/home/171536749,MLS PIN,72651313,N,Y,41.925127,-70.724262
MLS Listing,,Condo/Co-op,180 Main St Unit A8,Bridgewater,MA,02324,189900,2,1.5,Bridgewater,969,,1970,1,196,350,Active,May-9-2020 11:00 AM,May-9-2020 02:00 PM,http://www.redfin.com/MA/Bridgewater/180-Main-St-02324/unit-A8/home/16310100,MLS PIN,72651251,N,Y,41.9937888,-70.979446
MLS Listing,,Single Family Residential,20 Country Ln,Bridgewater,MA,02324,510000,4,3.0,Bridgewater,2596,69914,1991,1,196,,Active,,,http://www.redfin.com/MA/Bridgewater/20-Country-Ln-02324/home/16311911,MLS PIN,72651211,N,Y,41.9505728,-70.9917601
MLS Listing,,Single Family Residential,15 Moraski Ln,Plymouth,MA,02360,485000,4,2.5,Ponds of Plymouth,2869,29148,2002,1,169,,Active,,,http://www.redfin.com/MA/Plymouth/15-Moraski-Ln-02360/home/16411376,MLS PIN,72651201,N,Y,41.8174785,-70.5854987
MLS Listing,,Single Family Residential,411 Hayward St,Bridgewater,MA,02324,549900,4,2.5,Bridgewater,2696,31999,2010,1,204,,Active,,,http://www.redfin.com/MA/Bridgewater/411-Hayward-St-02324/home/16310561,MLS PIN,72651152,N,Y,42.0024919,-70.9519633
MLS Listing,,Single Family Residential,160 Algonquin St,Brockton,MA,02302,309000,2,1.0,Brockton,1048,7349,1950,1,295,,Active,,,http://www.redfin.com/MA/Brockton/160-Algonquin-St-02302/home/16316466,MLS PIN,72651147,N,Y,42.0960821,-70.9979011
MLS Listing,,Vacant Land,755 N Montello St,Brockton,MA,02301,350000,,,Brockton,,9283,,1,,,Active,,,http://www.redfin.com/MA/Brockton/755-N-Montello-St-02301/home/21784580,MLS PIN,72651124,N,Y,42.1034093,-71.0201714
MLS Listing,,Single Family Residential,37 Leland St,East Bridgewater,MA,02333,310000,2,1.0,East Bridgewater,1148,16875,1955,1,270,,Active,,,http://www.redfin.com/MA/East-Bridgewater/37-Leland-St-02333/home/16346794,MLS PIN,72651108,N,Y,42.0347642,-70.9829373
MLS Listing,,Single Family Residential,6 Russell Rd,Brockton,MA,02302,319900,3,2.0,Brockton,1116,11417,1949,1,287,,Active,,,http://www.redfin.com/MA/Brockton/6-Russell-Rd-02302/home/16315968,MLS PIN,72651090,N,Y,42.0882809,-70.9840402
MLS Listing,,Single Family Residential,136 Washington St,Hanover,MA,02340,889000,4,2.5,Hanover,3200,92783,,1,278,,Active,,,http://www.redfin.com/MA/Hanover/136-Washington-St-02339/home/67975030,MLS PIN,72651064,N,Y,42.1122455,-70.8101702
MLS Listing,,Condo/Co-op,8 Muirfield #8,Plymouth,MA,02360,759900,2,3.0,Pinehills,2738,,2018,1,278,635,Active,,,http://www.redfin.com/MA/Plymouth/8-Muirfield-02360/unit-8/home/169229068,MLS PIN,72651053,N,Y,41.9024214,-70.5951851
MLS Listing,,Single Family Residential,8 Muirfield,Plymouth,MA,02360,759900,2,3.0,Pinehills,2738,,2018,1,278,635,Active,,,http://www.redfin.com/MA/Plymouth/8-Muirfield-02360/home/113104560,MLS PIN,72651042,N,Y,41.9024214,-70.5951851
MLS Listing,,Single Family Residential,111 Meadowview St,Marshfield,MA,02050,1100000,4,4.0,Rexhame Beach,4633,20765,1956,1,237,,Active,,,http://www.redfin.com/MA/Marshfield/111-Meadowview-St-02050/home/16384323,MLS PIN,72651037,N,Y,42.113273,-70.6761196
MLS Listing,,Single Family Residential,190 Washington St,Duxbury,MA,02332,2370000,5,5.5,Duxbury,4828,43049,1998,1,491,,Active,,,http://www.redfin.com/MA/Duxbury/190-Washington-St-02332/home/16345731,MLS PIN,72651023,N,Y,42.0283046,-70.6751535
MLS Listing,,Single Family Residential,29 Menlo Ave,Brockton,MA,02301,359900,3,1.5,Brockton,1260,4996,1907,1,286,,Active,,,http://www.redfin.com/MA/Brockton/29-Menlo-Ave-02301/home/16331071,MLS PIN,72650989,N,Y,42.0654928,-71.0298816
MLS Listing,,Single Family Residential,36 Raymond Rd,Plymouth,MA,02360,529900,5,3.5,Ponds of Plymouth,3223,31761,1987,1,164,,Active,,,http://www.redfin.com/MA/Plymouth/36-Raymond-Rd-02360/home/16426892,MLS PIN,72650980,N,Y,41.7988301,-70.6004175
MLS Listing,,Single Family Residential,168 Indian Pond Rd,Kingston,MA,02364,1825000,6,7.5,Indian Pond,11308,653400,2007,1,161,,Active,,,http://www.redfin.com/MA/Kingston/168-Indian-Pond-Rd-02364/home/16371426,MLS PIN,72650972,N,Y,41.966367,-70.7558982
MLS Listing,,Townhouse,30 Trout Farm #30,Duxbury,MA,02332,338000,2,1.5,Duxbury,1160,,1983,1,291,252,Active,,,http://www.redfin.com/MA/Duxbury/30-Trout-Farm-Ln-02332/unit-30/home/77525716,MLS PIN,72650966,N,Y,42.024159,-70.739676
MLS Listing,,Single Family Residential,78 Pickens St,Lakeville,MA,02347,479900,3,2.0,Lakeville,2024,116609,1986,1,237,,Active,,,http://www.redfin.com/MA/Lakeville/78-Pickens-St-02347/home/16375914,MLS PIN,72650946,N,Y,41.8315777,-70.9768541
MLS Listing,,Single Family Residential,21 Coastline Dr,Plymouth,MA,02360,849000,4,3.0,Plymouth,3403,42216,1999,1,249,,Active,,,http://www.redfin.com/MA/Plymouth/21-Coastline-Dr-02360/home/16416488,MLS PIN,72650945,N,Y,41.819834,-70.5440865
MLS Listing,,Single Family Residential,73 Woodworth Ln,Scituate,MA,02066,950000,4,2.5,Walnut Tree Hill,3358,79715,2003,1,283,,Active,,,http://www.redfin.com/MA/Scituate/73-Woodworth-Ln-02066/home/16434319,MLS PIN,72650933,N,Y,42.1740905,-70.760823
MLS Listing,,Single Family Residential,106 Lester Rd,Brockton,MA,02302,319900,3,1.0,Brockton,1200,11452,1960,1,267,,Active,,,http://www.redfin.com/MA/Brockton/106-Lester-Rd-02302/home/16328409,MLS PIN,72650922,N,Y,42.11428,-71.0030901
MLS Listing,,Single Family Residential,10 Pleasant St,Marion,MA,02738,695000,6,2.0,Marion Village,3290,43995,1850,2,211,,Active,May-9-2020 11:00 AM,May-9-2020 12:30 PM,http://www.redfin.com/MA/Marion/10-Pleasant-St-02738/home/16380098,MLS PIN,72650906,N,Y,41.6973029,-70.7656083
MLS Listing,,Single Family Residential,970 Main St,Norwell,MA,02061,819000,3,2.5,Norwell,2400,55321,1953,2,341,,Active,,,http://www.redfin.com/MA/Norwell/970-Main-St-02061/home/16401675,MLS PIN,72650895,N,Y,42.1621246,-70.7700653
MLS Listing,,Single Family Residential,40 Rock St,Middleboro,MA,02346,379900,3,1.5,Middleboro,1421,46173,1980,2,267,,Active,,,http://www.redfin.com/MA/Middleborough/40-Rock-St-02346/home/16395114,MLS PIN,72650875,N,Y,41.8883242,-70.9075532
MLS Listing,,Single Family Residential,15 Partridge Trl,Bridgewater,MA,02324,415000,3,2.0,Bridgewater,1178,22592,1978,2,352,,Active,,,http://www.redfin.com/MA/Bridgewater/15-Partridge-Trl-02324/home/16309702,MLS PIN,72650847,N,Y,41.9958642,-70.9218694
MLS Listing,,Single Family Residential,33 Jacobs Trl,Norwell,MA,02061,549900,3,2.0,Assinippi,1424,9065,1945,2,386,,Active,,,http://www.redfin.com/MA/Norwell/33-Jacobs-Trl-02061/home/16403290,MLS PIN,72650815,N,Y,42.1613091,-70.8521708
MLS Listing,,Single Family Residential,28 Damons Point Cir,Marshfield,MA,02050,475000,3,2.0,Marshfield Hills,1258,3112,1940,2,378,,Active,,,http://www.redfin.com/MA/Marshfield/28-Damons-Point-Cir-02050/home/16388507,MLS PIN,72650812,N,Y,42.1592542,-70.7309021
MLS Listing,,Condo/Co-op,45 Main #214,Wareham,MA,02571,229000,1,1.5,Wareham (Village),882,,1900,2,260,375,Active,,,http://www.redfin.com/MA/Wareham/45-Main-St-02571/unit-214/home/16445682,MLS PIN,72650784,N,Y,41.7542684,-70.7109212
MLS Listing,,Single Family Residential,81 Hammond,Bridgewater,MA,02324,429900,3,2.5,Bridgewater,2028,8000,2019,2,212,,Active,,,http://www.redfin.com/MA/Bridgewater/81-Hammond-St-02324/home/171527805,MLS PIN,72650779,N,Y,41.9954997,-70.9775457
MLS Listing,,Single Family Residential,18 Damon Rd,Scituate,MA,02066,699000,4,3.0,Scituate,2562,5009,1948,3,273,,Active,,,http://www.redfin.com/MA/Scituate/18-Damon-Rd-02066/home/16435909,MLS PIN,72650683,N,Y,42.2059301,-70.7260932
MLS Listing,,Single Family Residential,317 Main St,Hanover,MA,02339,549000,4,1.5,Hanover,1144,32234,1971,3,480,,Active,,,http://www.redfin.com/MA/Hanover/317-Main-St-02339/home/16353893,MLS PIN,72650681,N,Y,42.1242192,-70.854532
MLS Listing,,Single Family Residential,52 Valley Beach Ave,Hull,MA,02045,650000,3,1.5,Center Hill,1491,5410,1860,3,436,,Active,,,http://www.redfin.com/MA/Hull/52-Valley-Beach-Ave-02045/home/16365880,MLS PIN,72650663,N,Y,42.2677669,-70.8446747
MLS Listing,,Single Family Residential,154 Prospect St,Marshfield,MA,02050,899000,4,2.5,Hills,4525,87120,1860,3,199,,Active,,,http://www.redfin.com/MA/Marshfield/154-Prospect-St-02050/home/39890737,MLS PIN,72650645,N,Y,42.1466875,-70.7382431
MLS Listing,,Single Family Residential,41 Water St,Marshfield,MA,02050,750000,4,2.0,Blue Fish Cove,2303,27443,1921,3,326,,Active,,,http://www.redfin.com/MA/Marshfield/41-Water-St-02050/home/163270602,MLS PIN,72650642,N,Y,42.0796939,-70.6442718
MLS Listing,,Multi-Family (2-4 Unit),117 Cross St,Brockton,MA,02301,750000,8,3.0,Brockton,4050,5336,1925,3,185,,Active,,,http://www.redfin.com/MA/Brockton/117-Cross-St-02301/home/16327457,MLS PIN,72650590,N,Y,42.0946039,-71.0325746
MLS Listing,,Single Family Residential,5 McClellan Dr,Plymouth,MA,02360,448888,4,2.0,Plymouth,2108,22614,1977,3,213,,Active,,,http://www.redfin.com/MA/Plymouth/5-McClellan-Dr-02360/home/16428079,MLS PIN,72650577,N,Y,41.9174393,-70.6987954
MLS Listing,,Single Family Residential,131 Prospect St,Marshfield,MA,02050,899000,3,2.5,Marshfield,2736,45738,1968,3,329,,Active,,,http://www.redfin.com/MA/Marshfield/131-Prospect-St-02050/home/16388738,MLS PIN,72650544,N,Y,42.147068,-70.7372777
MLS Listing,,Single Family Residential,14 Carroll Ave,Brockton,MA,02301,299900,3,1.5,Brockton,1884,8176,1950,3,159,,Active,,,http://www.redfin.com/MA/Brockton/14-Carroll-Ave-02301/home/16317920,MLS PIN,72650517,N,Y,42.06545,-71.0214936
MLS Listing,,Single Family Residential,65 Ellisville Rd,Plymouth,MA,02360,1099000,4,4.0,Cedarville,3775,30455,1994,3,291,,Active,,,http://www.redfin.com/MA/Plymouth/65-Ellisville-Rd-02360/home/16422741,MLS PIN,72650515,N,Y,41.8313966,-70.5432498
MLS Listing,,Townhouse,74 Hatherly Rise #74,Plymouth,MA,02360,639000,3,3.0,Pinehills,2197,,2018,3,291,477,Active,,,http://www.redfin.com/MA/Plymouth/74-Hatherly-Rise-02360/unit-74/home/170670384,MLS PIN,72650510,N,Y,41.9028401,-70.5858481
MLS Listing,,Single Family Residential,1 Morton Park Rd,Plymouth,MA,02360,329900,5,3.5,Plymouth,4026,871,1880,4,82,,Active,,,http://www.redfin.com/MA/Plymouth/1-Morton-Park-Rd-02360/home/16413817,MLS PIN,72650496,N,Y,41.9484307,-70.6819745
MLS Listing,,Multi-Family (2-4 Unit),178 NORTH Ave,Abington,MA,02351,399000,7,3.0,Abington,2520,4399,1900,4,158,,Active,,,http://www.redfin.com/MA/Abington/178-North-Ave-02351/home/16305740,MLS PIN,72650422,N,Y,42.1282279,-70.9431861
MLS Listing,,Single Family Residential,14 N Captain Way,Pembroke,MA,02359,475000,3,2.0,Pembroke,1877,40713,1985,4,253,,Active,,,http://www.redfin.com/MA/Pembroke/14-N-Captain-Way-02359/home/16407694,MLS PIN,72650373,N,Y,42.097372,-70.7717757
MLS Listing,,Single Family Residential,10 Harborview,Hingham,MA,02043,585000,3,2.0,Hingham,1276,6685,1969,4,458,,Active,,,http://www.redfin.com/MA/Hingham/10-Harborview-Dr-02043/home/16365165,MLS PIN,72650348,N,Y,42.2471998,-70.9059392
MLS Listing,,Single Family Residential,56 wapping,Kingston,MA,02364,424900,3,1.5,Kingston,1402,41382,1976,4,303,,Active,,,http://www.redfin.com/MA/Kingston/56-Wapping-Rd-02364/home/16372467,MLS PIN,72650337,N,Y,41.9908345,-70.7551084
MLS Listing,,Townhouse,225 Lincoln St Unit F2,Duxbury,MA,02332,374900,2,2.5,Duxbury,2194,3049,1981,4,171,625,Active,,,http://www.redfin.com/MA/Duxbury/225-Lincoln-St-02332/unit-F2/home/16342725,MLS PIN,72650311,N,Y,42.0542778,-70.7228566
MLS Listing,,Condo/Co-op,40 Summersweet Cir #40,Plymouth,MA,02360,453790,2,2.0,South Plymouth,1710,8668,2020,4,265,422,Active,,,http://www.redfin.com/MA/Plymouth/40-Summersweet-Cir-02360/unit-40/home/171497691,MLS PIN,72650275,N,Y,41.8246819,-70.6254093
MLS Listing,,Single Family Residential,24 Weathervane,Plymouth,MA,02360,545000,3,2.5,Pinehills- Great Island,2554,6476,2012,4,213,348,Active,,,http://www.redfin.com/MA/Plymouth/24-Weathervane-02360/home/55738239,MLS PIN,72650273,N,Y,41.8835281,-70.5861494
MLS Listing,,Condo/Co-op,20 Bearberry Path #20,Plymouth,MA,02360,490070,2,2.0,South Plymouth,1860,10585,2020,4,263,422,Active,,,http://www.redfin.com/MA/Plymouth/20-Bearberry-Path-02360/unit-20/home/171497576,MLS PIN,72650271,N,Y,41.8275849,-70.621454
MLS Listing,,Vacant Land,0 Main St,Wareham,MA,02571,50000,,,Wareham,,58058,,4,,,Active,,,http://www.redfin.com/MA/WAREHAM/MAIN-ST-02571/home/16444613,MLS PIN,72650263,N,Y,41.772254,-70.75064
MLS Listing,,Single Family Residential,21 Clam Pudding,Plymouth,MA,02360,559000,2,3.0,Great Island,2981,6858,2006,4,188,280,Active,,,http://www.redfin.com/MA/Plymouth/21-Clam-Pudding-02360/home/16429673,MLS PIN,72650251,N,Y,41.8782894,-70.5795032
MLS Listing,,Single Family Residential,102 Angelica Ave,Mattapoisett,MA,02739,799999,3,2.0,Mattapoisett,1756,10000,1948,4,456,,Active,,,http://www.redfin.com/MA/Mattapoisett/102-Angelica-Ave-02739/home/16393616,MLS PIN,72650248,N,Y,41.6504375,-70.7655618
MLS Listing,,Single Family Residential,81 Hitty Tom Rd,Duxbury,MA,02332,629900,4,2.0,Duxbury,2265,52197,1972,4,278,,Active,,,http://www.redfin.com/MA/Duxbury/81-Hitty-Tom-Rd-02332/home/16344199,MLS PIN,72650242,N,Y,42.0215245,-70.7545509
MLS Listing,,Condo/Co-op,38 Summersweet Cir #38,Plymouth,MA,02360,438790,2,2.0,South Plymouth,1577,8494,2020,4,278,422,Active,,,http://www.redfin.com/MA/Plymouth/38-Summersweet-Cir-02360/unit-38/home/171496721,MLS PIN,72650220,N,Y,41.8246819,-70.6254093
MLS Listing,,Condo/Co-op,32 Summersweet Cir #32,Plymouth,MA,02360,475070,2,2.0,South Plymouth,1727,11369,2020,4,275,422,Active,,,http://www.redfin.com/MA/Plymouth/32-Summersweet-Cir-02360/unit-32/home/171496348,MLS PIN,72650208,N,Y,41.8246819,-70.6254093
MLS Listing,,Single Family Residential,17 Liberty Rd,Hingham,MA,02043,1275000,4,2.5,South Hingham,4497,30000,1977,4,284,,Active,,,http://www.redfin.com/MA/Hingham/17-Liberty-Rd-02043/home/16360237,MLS PIN,72650207,N,Y,42.1864997,-70.8783039
MLS Listing,,Single Family Residential,5 Willowbend Blvd,Plymouth,MA,02360,349900,3,2.0,Westwood Village,1485,,2006,4,236,670,Active,,,http://www.redfin.com/MA/Plymouth/5-Willow-Bend-Blvd-02360/home/171426254,MLS PIN,72650148,N,Y,41.946828,-70.727265
MLS Listing,,Condo/Co-op,103 Grove St #336,Rockland,MA,02370,145000,1,1.0,Rockland,632,194713,1972,4,229,294,Active,,,http://www.redfin.com/MA/Rockland/103-Grove-St-02370/unit-336/home/14810791,MLS PIN,72650072,N,Y,42.1259997,-70.9203839
MLS Listing,,Single Family Residential,9 Knight Ave,Plymouth,MA,02360,389900,3,2.0,West Plymouth,2029,13504,1984,4,192,,Active,,,http://www.redfin.com/MA/Plymouth/9-Knight-Ave-02360/home/16428023,MLS PIN,72650035,N,Y,41.9063927,-70.7068339
MLS Listing,,Single Family Residential,14 Hobart St,Hingham,MA,02043,499900,2,1.5,Hingham,1405,19368,1920,4,356,,Active,,,http://www.redfin.com/MA/Hingham/14-Hobart-St-02043/home/16364047,MLS PIN,72650034,N,Y,42.2249212,-70.8876629
MLS Listing,,Single Family Residential,12 Branch St,Marshfield,MA,02050,265000,2,1.0,Brant Rock,648,6098,1935,4,409,,Active,,,http://www.redfin.com/MA/Marshfield/12-Branch-St-02050/home/171492904,MLS PIN,72650033,N,Y,42.0828558,-70.6432523
MLS Listing,,Single Family Residential,42 Center St,Pembroke,MA,02359,649000,3,2.0,North Pembroke,2100,87120,2020,4,309,,Active,,,http://www.redfin.com/MA/Pembroke/42-Center-St-02359/home/170380871,MLS PIN,72650019,N,Y,42.073093,-70.8043772
MLS Listing,,Mobile/Manufactured Home,7 Rim Rd,Plymouth,MA,02360,199900,4,2.0,Long Pond Village,2180,,2003,4,92,1000,Active,,,http://www.redfin.com/MA/Plymouth/7-Rim-Rd-02360/home/132212279,MLS PIN,72650004,N,Y,41.8176818,-70.5676514
MLS Listing,,Single Family Residential,2 Spicebush,Plymouth,MA,02360,445900,2,2.5,Symington Woods @ The Pinehills,1600,,2020,4,279,368,Active,,,http://www.redfin.com/MA/Plymouth/2-2nd-St-02360/unit-2/home/169593814,MLS PIN,72650006,N,Y,41.899528,-70.545328
MLS Listing,,Single Family Residential,20 S Wind Dr,Plymouth,MA,02360,199000,2,1.0,Wall Wind Shores,620,20473,1964,4,321,,Active,,,http://www.redfin.com/MA/Plymouth/20-S-Wind-Dr-02360/home/16426421,MLS PIN,72649993,N,Y,41.8243313,-70.6016206
MLS Listing,,Single Family Residential,4 Spicebush,Plymouth,MA,02360,416900,2,2.5,Symington Woods @ The Pinehills,1870,,2020,4,223,368,Active,,,http://www.redfin.com/MA/Plymouth/4-Spicebush-02360/home/171492404,MLS PIN,72649991,N,Y,41.8804637,-70.645473
MLS Listing,,Single Family Residential,96 Mayflower Ridge Dr,Wareham,MA,02571,235000,2,1.0,Mayflower Ridge,811,4050,1978,4,290,,Active,,,http://www.redfin.com/MA/Wareham/96-Mayflower-Ridge-Dr-02571/home/16442071,MLS PIN,72649971,N,Y,41.7641071,-70.7151045
MLS Listing,,Townhouse,513 Centre St #513,Brockton,MA,02302,359999,4,2.5,Brockton,1726,,2020,4,209,,Active,,,http://www.redfin.com/MA/Brockton/513-Centre-St-02302/unit-513/home/21776120,MLS PIN,72649964,N,Y,42.0847233,-70.9987554
MLS Listing,,Vacant Land,178 County St,Lakeville,MA,02347,699000,,,Lakeville,,1089000,,4,,,Active,,,http://www.redfin.com/MA/Lakeville/178-County-St-02347/home/66764534,MLS PIN,72649943,N,Y,41.8028386,-70.9640783
MLS Listing,,Single Family Residential,41 Shaw Rd,Brockton,MA,02301,339900,3,1.5,Brockton,1428,7200,1959,4,238,,Active,,,http://www.redfin.com/MA/Brockton/41-Shaw-Rd-02301/home/16331994,MLS PIN,72649928,N,Y,42.0670036,-71.0549419
MLS Listing,,Single Family Residential,140 Hatherly Rd Lot 144,Scituate,MA,02066,989995,4,2.5,Seaside at Scituate Estate Collection,3100,46095,,4,319,,Active,,,http://www.redfin.com/MA/Scituate/140-Hatherly-Rd-02066/unit-144/home/170445258,MLS PIN,72649906,N,Y,42.2103396,-70.7350417
MLS Listing,,Single Family Residential,18 Adams Ave,Pembroke,MA,02359,300000,2,1.0,Olham Village,1117,10000,1940,4,269,,Active,,,http://www.redfin.com/MA/Pembroke/18-Adams-Ave-02359/home/16404742,MLS PIN,72649896,N,Y,42.0680169,-70.8302282
MLS Listing,,Single Family Residential,83 Main St,Hull,MA,02045,849900,5,3.0,Hull Village,2725,28400,1890,4,312,,Active,,,http://www.redfin.com/MA/Hull/83-Main-St-02045/home/16367738,MLS PIN,72649882,N,Y,42.303269,-70.912137
MLS Listing,,Condo/Co-op,1 Marc Dr Unit 1B3,Plymouth,MA,02360,195000,2,1.5,Plymouth,944,,1986,4,207,328,Active,,,http://www.redfin.com/MA/Plymouth/1-Marc-Dr-02360/unit-1B3/home/16413962,MLS PIN,72649873,N,Y,41.9495687,-70.6941875
MLS Listing,,Townhouse,17 Thelma Way #85,Scituate,MA,02066,926394,2,2.5,Egypt,2441,,,4,380,535,Active,,,http://www.redfin.com/MA/Scituate/17-Thelma-Way-02066/unit-85/home/167183522,MLS PIN,72649871,N,Y,42.2090781,-70.739278
MLS Listing,,Single Family Residential,67 Woodworth Ln,Scituate,MA,02066,1249000,5,3.5,Walnut Tree Hill,4132,41061,2007,4,302,17,Active,,,http://www.redfin.com/MA/Scituate/67-Woodworth-Ln-02066/home/18977261,MLS PIN,72647750,N,Y,42.1744934,-70.7603584
MLS Listing,,Townhouse,25 Howland St #5,Plymouth,MA,02360,529000,2,2.5,Downtown,1380,,2017,4,383,275,Active,,,http://www.redfin.com/MA/Plymouth/25-Howland-St-02360/unit-5/home/109457136,MLS PIN,72649850,N,Y,41.9590114,-70.665793
MLS Listing,,Single Family Residential,54 Partridge Brook Cir,Marshfield,MA,02050,675000,4,2.0,Green Island Landing,3265,43560,1994,4,207,,Active,,,http://www.redfin.com/MA/Marshfield/54-Partridge-Brook-Cir-02050/home/16386898,MLS PIN,72649841,N,Y,42.0679258,-70.695264
MLS Listing,,Condo/Co-op,1187 Nantasket Ave #6,Hull,MA,02045,289000,2,2.0,Hull,1075,,1985,4,269,438,Active,,,http://www.redfin.com/MA/Hull/1187-Nantasket-Ave-02045/unit-6/home/16365776,MLS PIN,72647412,N,Y,42.3057846,-70.9043515
MLS Listing,,Single Family Residential,15 N Woods Trl,Plymouth,MA,02360,419900,2,1.0,Plymouth,1420,37424,1995,4,296,,Active,,,http://www.redfin.com/MA/Plymouth/15-N-Woods-Trl-02360/home/16425138,MLS PIN,72645585,N,Y,41.9678794,-70.6909426
MLS Listing,,Condo/Co-op,1 Marc Dr Unit 3B,Plymouth,MA,02360,195000,2,1.5,Plymouth,944,,1986,4,207,,Active,,,http://www.redfin.com/MA/Plymouth/1-Marc-Dr-02360/unit-3B/home/171483402,CCIMLS,22002186,N,Y,41.9495687,-70.6941875
MLS Listing,,Single Family Residential,20 4th Ave,Halifax,MA,02338,499000,3,2.5,Halifax,1920,19200,2020,4,260,,Active,,,http://www.redfin.com/MA/Halifax/20-4th-Ave-02338/home/14805390,MLS PIN,72646270,N,Y,41.9993437,-70.847667
MLS Listing,,Single Family Residential,9 Douglas Ave,Norwell,MA,02061,519000,3,2.0,Norwell,1483,13068,1966,5,350,,Active,,,http://www.redfin.com/MA/Norwell/9-Douglas-Ave-02061/home/16403279,MLS PIN,72649816,N,Y,42.1623604,-70.8533261
MLS Listing,,Single Family Residential,20 Possum Run,Duxbury,MA,02332,1575000,4,3.5,Possum Run,5067,40089,1986,5,311,,Active,,,http://www.redfin.com/MA/Duxbury/20-Possum-Run-02332/home/16345443,MLS PIN,72649799,N,Y,42.0325282,-70.6859801
MLS Listing,,Single Family Residential,120 State St,Hanson,MA,02341,339000,2,2.0,Hanson,1195,55757,1884,5,284,,Active,,,http://www.redfin.com/MA/Hanson/120-State-St-02341/home/16356698,MLS PIN,72649779,N,Y,42.0794428,-70.8443495
MLS Listing,,Single Family Residential,7 Bay View Avenue Cd,Mattapoisett,MA,02739,639000,3,1.5,The Cedars,1494,38327,1935,5,428,,Active,,,http://www.redfin.com/MA/Mattapoisett/7-Bay-View-Avenue-Cd-02739/home/16393199,MLS PIN,72649777,N,Y,41.6535052,-70.7871321
MLS Listing,,Townhouse,17 Ridge Dr #17,Middleboro,MA,02346,275000,2,1.5,South Middleborough,1200,,2003,5,229,280,Active,,,http://www.redfin.com/MA/Middleborough/17-Ridge-Dr-02346/unit-17/home/145671500,MLS PIN,72649758,N,Y,41.8319011,-70.8375836
MLS Listing,,Single Family Residential,7 Jericho Rd,Scituate,MA,02066,1585000,4,3.5,Scituate,4100,10013,1850,5,387,,Active,,,http://www.redfin.com/MA/Scituate/7-Jericho-Rd-02066/home/16436568,MLS PIN,72649742,N,Y,42.1984606,-70.7279284
MLS Listing,,Single Family Residential,566 Careswell St,Marshfield,MA,02050,462500,3,1.5,Marshfield,2747,65340,1875,5,168,,Active,,,http://www.redfin.com/MA/Marshfield/566-Careswell-St-02050/home/16385048,MLS PIN,72649727,N,Y,42.0731309,-70.671196
MLS Listing,,Single Family Residential,47 Indian Trl,Whitman,MA,02382,294900,4,1.0,Whitman,1540,22499,1978,5,191,,Active,,,http://www.redfin.com/MA/Whitman/47-Indian-Trl-02382/home/16458001,MLS PIN,72649725,N,Y,42.094261,-70.9108159
MLS Listing,,Single Family Residential,9 Circle Dr,Wareham,MA,02571,349900,2,2.0,Swifts Beach,1320,2493,1935,5,265,,Active,,,http://www.redfin.com/MA/Wareham/9-Circle-Dr-02571/home/16441949,MLS PIN,72649706,N,Y,41.7398463,-70.7193211
MLS Listing,,Single Family Residential,38 Daisy Ln,Plymouth,MA,02360,373850,2,2.5,Redbrook,1624,,2020,5,230,330,Active,,,http://www.redfin.com/MA/Plymouth/38-Daisy-LN-02360/home/171478097,MLS PIN,72649702,N,Y,41.8804637,-70.645473
MLS Listing,,Single Family Residential,60 Sunflower Way,Plymouth,MA,02360,479900,2,2.5,Redbrook,1884,5500,2020,5,255,180,Active,,,http://www.redfin.com/MA/Plymouth/60-Sunflower-Way-02360/home/171477972,MLS PIN,72649690,N,Y,41.8308367,-70.6199197
MLS Listing,,Single Family Residential,Lot 2 Tispaquin St,Middleboro,MA,02346,499900,3,2.5,Middleboro,2016,81021,2020,5,248,,Active,,,http://www.redfin.com/MA/Middleborough/2-Tispaquin-St-02346/home/17543328,MLS PIN,72649671,N,Y,41.8641531,-70.8704144
MLS Listing,,Single Family Residential,115 W Chapel St,Abington,MA,02351,429000,4,1.5,Abington,1683,16534,1956,5,255,,Active,,,http://www.redfin.com/MA/Abington/115-W-Chapel-St-02351/home/16304542,MLS PIN,72649669,N,Y,42.1099846,-70.9440453
MLS Listing,,Single Family Residential,25 Sunflower Way,Plymouth,MA,02360,399900,2,2.5,Redbrook,1664,1200,2020,5,240,330,Active,,,http://www.redfin.com/MA/Plymouth/25-Sunflower-Way-02360/home/171477072,MLS PIN,72649628,N,Y,41.8308367,-70.6199197
MLS Listing,,Vacant Land,0 Charlotte St,Brockton,MA,02301,145000,,,Brockton,,11250,,5,,,Active,,,http://www.redfin.com/MA/Brockton/Charlotte-St-02302/home/160912263,MLS PIN,72649552,N,Y,42.0828,-71.0164
MLS Listing,,Condo/Co-op,4 Longwood Ln Unit Flat 206,Hanover,MA,02339,455000,2,2.0,North Hanover,1465,,2019,5,311,360,Active,,,http://www.redfin.com/MA/Hanover/4-Longwood-Ln-02339/unit-Flat-206/home/171476761,MLS PIN,72649602,N,Y,42.1221808,-70.8330812
MLS Listing,,Single Family Residential,7 Brook St,Kingston,MA,02364,349900,3,1.0,Kingston,1625,16117,1947,5,215,,Active,May-9-2020 11:00 AM,May-9-2020 03:00 PM,http://www.redfin.com/MA/Kingston/7-Brook-St-02364/home/16372361,MLS PIN,72649545,N,Y,41.9891296,-70.7257447
MLS Listing,,Single Family Residential,24 Pond View Dr,Kingston,MA,02364,899900,4,3.5,Indian Pond Estates,5318,102802,1998,5,169,,Active,,,http://www.redfin.com/MA/Kingston/24-Pond-View-Dr-02364/home/16370925,MLS PIN,72649538,N,Y,41.9664419,-70.7391258
MLS Listing,,Single Family Residential,Lot 29 2 Putter Way,Lakeville,MA,02347,549000,2,2.0,The Estates at Lebaron Hills,1780,10813,2020,5,308,80,Active,,,http://www.redfin.com/MA/Lakeville/Lot-29-2-Putter-WAY-02347/home/171476732,MLS PIN,72649598,N,Y,41.8306204,-70.9665682
MLS Listing,,Single Family Residential,1558 Tremont St,Duxbury,MA,02332,599000,3,2.0,Duxbury,2290,49148,1959,5,262,,Active,,,http://www.redfin.com/MA/Duxbury/1558-Tremont-St-02332/home/16341933,MLS PIN,72649570,N,Y,42.0624464,-70.6903385
MLS Listing,,Single Family Residential,133 Lawson Rd,Scituate,MA,02066,699000,3,2.0,Egypt,2648,28810,1955,5,264,,Active,,,http://www.redfin.com/MA/Scituate/133-Lawson-Rd-02066/home/16438036,MLS PIN,72649561,N,Y,42.2085071,-70.7570597
MLS Listing,,Single Family Residential,10 Dundee Dr,Bridgewater,MA,02324,559000,3,3.0,Bridgewater,2583,22500,1974,5,216,,Active,,,http://www.redfin.com/MA/Bridgewater/10-Dundee-Dr-02324/home/16312523,MLS PIN,72649524,N,Y,41.9588425,-71.0075711
MLS Listing,,Single Family Residential,4 Pilgrim,Lakeville,MA,02347,425000,2,2.0,Churchill Shores,1450,7150,1950,5,293,25,Active,,,http://www.redfin.com/MA/Lakeville/4-Pilgrim-Rd-02347/home/16378310,MLS PIN,72649510,N,Y,41.8058416,-70.957421
MLS Listing,,Single Family Residential,14 Crooked Meadow Ln,Hingham,MA,02043,1050000,4,3.5,Hingham,2766,47916,1970,5,380,,Active,,,http://www.redfin.com/MA/Hingham/14-Crooked-Meadow-Ln-02043/home/16361914,MLS PIN,72649508,N,Y,42.214548,-70.8800224
MLS Listing,,Single Family Residential,102 Plymouth St,Middleboro,MA,02346,349900,2,2.0,Middleboro,1610,4792,1850,5,217,,Active,,,http://www.redfin.com/MA/Middleborough/102-Plymouth-St-02346/home/16395248,MLS PIN,72649507,N,Y,41.9330244,-70.9668237
MLS Listing,,Single Family Residential,192 Country Club Way,Kingston,MA,02364,1250000,4,3.5,Indian Pond Estates,5432,43124,1999,5,230,,Active,,,http://www.redfin.com/MA/Kingston/192-Country-Club-Way-02364/home/16371506,MLS PIN,72649486,N,Y,41.973549,-70.7412398
MLS Listing,,Single Family Residential,728 Hancock St,Abington,MA,02351,459000,3,1.5,Abington,1256,21761,1920,5,365,,Active,May-9-2020 02:00 PM,May-9-2020 04:00 PM,http://www.redfin.com/MA/Abington/728-Hancock-St-02351/home/16306881,MLS PIN,72649452,N,Y,42.1276623,-70.9751879
MLS Listing,,Single Family Residential,18 Cynthia Ave,Pembroke,MA,02359,284900,2,1.0,Pembroke,1040,4725,,5,274,,Active,,,http://www.redfin.com/MA/Pembroke/18-Cynthia-Ave-02359/home/16404661,MLS PIN,72649449,N,Y,42.0641189,-70.8286024
MLS Listing,,Vacant Land,6 Crescent Rd,Carver,MA,02330,219900,,,Carver,,246549,,5,,,Active,,,http://www.redfin.com/MA/Carver/6-Crescent-Rd-02330/home/16339772,MLS PIN,72649443,N,Y,41.8816643,-70.7620788
MLS Listing,,Single Family Residential,19 Highland Bay Dr,Wareham,MA,02571,199900,2,1.0,Wareham,616,5000,1960,5,325,,Active,,,http://www.redfin.com/MA/Wareham/19-Highland-Bay-Dr-02571/home/16445376,MLS PIN,72649436,N,Y,41.7447547,-70.7428892
MLS Listing,,Single Family Residential,Lot11   4 Quail Run Rd,Bridgewater,MA,02324,679900,4,2.5,Oldfield Estates Phase 1,2935,43560,2020,5,232,,Active,,,http://www.redfin.com/MA/Bridgewater/Lot11-4-Quail-Run-RD-02324/home/171472235,MLS PIN,72649421,N,Y,41.9903519,-70.9750541
MLS Listing,,Single Family Residential,225 Jon Dr,Brockton,MA,02302,299900,3,1.5,Brockton,1056,11500,1960,5,284,,Active,,,http://www.redfin.com/MA/Brockton/225-Jon-Dr-02302/home/16326456,MLS PIN,72649411,N,Y,42.1188356,-71.0066191
MLS Listing,,Mobile/Manufactured Home,24 Adams Cir,Carver,MA,02330,220000,3,2.0,Cranberry Village,1344,5000,2020,5,164,510,Active,,,http://www.redfin.com/MA/Carver/24-Adams-Cir-02330/home/148534013,MLS PIN,72649410,N,Y,41.8400136,-70.7232222
MLS Listing,,Townhouse,16 Latham Wood #16,Plymouth,MA,02360,515000,3,2.5,Pinehills,2124,,2004,5,242,634,Active,,,http://www.redfin.com/MA/Plymouth/16-Latham-Wood-02360/unit-16/home/113231958,MLS PIN,72649377,N,Y,41.8937534,-70.6078299
MLS Listing,,Single Family Residential,1178 Main St,Hanson,MA,02341,379900,3,1.0,Main Street,1394,15302,1910,5,273,,Active,,,http://www.redfin.com/MA/Hanson/1178-Main-St-02341/home/16357919,MLS PIN,72649350,N,Y,42.0434208,-70.883924
MLS Listing,,Single Family Residential,53 Beal St,Hingham,MA,02043,535000,3,1.5,Hingham,1261,10280,1910,5,424,,Active,,,http://www.redfin.com/MA/Hingham/53-Beal-St-02043/home/16364781,MLS PIN,72649342,N,Y,42.2416251,-70.9083477
MLS Listing,,Townhouse,26 Symington Dr #0,Plymouth,MA,02360,515000,2,2.0,Pinehills,1786,,2015,5,288,456,Active,,,http://www.redfin.com/MA/Plymouth/26-Symington-Dr-02360/unit-TH-26/home/171416605,MLS PIN,72649340,N,Y,41.878564,-70.595997
MLS Listing,,Single Family Residential,92 Hornbeam Rd,Duxbury,MA,02332,1799000,5,3.5,Duxbury,3838,32234,1954,5,469,38,Active,,,http://www.redfin.com/MA/Duxbury/92-Hornbeam-Rd-02332/home/16346392,MLS PIN,72649334,N,Y,42.0217174,-70.6778389
MLS Listing,,Single Family Residential,143 Pleasant St,Norwell,MA,02061,1598000,5,4.0,Norwell,3444,80150,1845,5,464,,Active,,,http://www.redfin.com/MA/Norwell/143-Pleasant-St-02061/home/16402122,MLS PIN,72649321,N,Y,42.1478067,-70.8213093
MLS Listing,,Single Family Residential,289 Pembroke St,Kingston,MA,02364,329900,2,1.0,Kingston,1060,23087,1957,5,311,,Active,,,http://www.redfin.com/MA/Kingston/289-Pembroke-St-02364/home/16374266,MLS PIN,72649316,N,Y,42.0191069,-70.7894411
MLS Listing,,Single Family Residential,621 N Elm St,West Bridgewater,MA,02379,374000,4,2.5,West Bridgewater,1880,30056,1974,6,199,,Active,,,http://www.redfin.com/MA/West-Bridgewater/621-N-Elm-St-02379/home/16453470,MLS PIN,72649309,N,Y,42.0416904,-71.0177165
MLS Listing,,Single Family Residential,771 SUMMER St,Brockton,MA,02302,324999,4,1.0,Brockton,1150,6382,1962,6,283,,Active,,,http://www.redfin.com/MA/Brockton/771-Summer-St-02302/home/16321119,MLS PIN,72649308,N,Y,42.0574051,-71.0063289
MLS Listing,,Townhouse,24 Spinnaker Hill Ln #24,Hull,MA,02045,519900,3,3.5,Hull,1813,,2000,6,287,1100,Active,,,http://www.redfin.com/MA/Hull/24-Spinnaker-Hill-Ln-02045/unit-24/home/171455933,MLS PIN,72649295,N,Y,42.3002447,-70.8959718
MLS Listing,,Single Family Residential,40 Manomet Point Rd,Plymouth,MA,02360,465000,3,2.0,White Horse Beach,1800,29185,1900,6,258,,Active,,,http://www.redfin.com/MA/Plymouth/40-Manomet-Point-Rd-02360/home/16418403,MLS PIN,72649260,N,Y,41.918012,-70.553793
MLS Listing,,Vacant Land,101 Whitman St,East Bridgewater,MA,02333,150000,,,East Bridgewater,,22702,,6,,,Active,,,http://www.redfin.com/MA/East-Bridgewater/101-Whitman-St-02333/home/171452320,MLS PIN,72649258,N,Y,42.0199997,-70.954645
MLS Listing,,Single Family Residential,282 Lincoln St,Norwell,MA,02061,699000,4,2.5,Norwell,2534,231304,1977,6,276,,Active,,,http://www.redfin.com/MA/Norwell/282-Lincoln-St-02061/home/16402843,MLS PIN,72649254,N,Y,42.1772407,-70.8183658
MLS Listing,,Townhouse,1 Paradise Ln Unit F4,Whitman,MA,02382,334900,2,1.5,Whitman,1361,,2017,6,246,160,Active,,,http://www.redfin.com/MA/Whitman/1-Paradise-Ln-02382/unit-F4/home/161043962,MLS PIN,72649184,N,Y,42.0732827,-70.9481765
MLS Listing,,Single Family Residential,7 Spring St,Duxbury,MA,02332,8500000,6,7.5,Standish Shore,9600,58806,2015,6,885,,Active,,,http://www.redfin.com/MA/Duxbury/7-Spring-St-02332/home/16345081,MLS PIN,72649180,N,Y,42.0077217,-70.6743001
MLS Listing,,Single Family Residential,18 Pico Beach Rd,Mattapoisett,MA,02739,699000,3,2.5,Pico Beach,1639,30220,1984,6,426,17,Active,,,http://www.redfin.com/MA/Mattapoisett/18-Pico-Beach-Rd-02739/home/16393222,MLS PIN,72649119,N,Y,41.6540701,-70.7908813
MLS Listing,,Single Family Residential,74 Pearl St,Bridgewater,MA,02324,399900,3,2.0,Bridgewater,1738,18785,1800,6,230,,Active,,,http://www.redfin.com/MA/Bridgewater/74-Pearl-St-02324/home/16310374,MLS PIN,72649116,N,Y,41.9940725,-70.9767496
MLS Listing,,Single Family Residential,30 Westfield Dr,Brockton,MA,02301,395000,3,1.5,West Side Neighborhood,1428,10916,1965,6,277,,Active,,,http://www.redfin.com/MA/Brockton/30-Westfield-Dr-02301/home/16336176,MLS PIN,72649108,N,Y,42.0681059,-71.0663747
MLS Listing,,Single Family Residential,87 Taylor St,Pembroke,MA,02359,349900,4,1.5,Pembroke,1674,1,1800,6,209,,Active,,,http://www.redfin.com/MA/Pembroke/87-Taylor-St-02359/home/16407196,MLS PIN,72649078,N,Y,42.0754097,-70.7678847
MLS Listing,,Single Family Residential,26 Hillcrest Cir #16,Norwell,MA,02061,799000,3,2.5,Tiffany Hill Estates,2700,,2020,6,296,,Active,,,http://www.redfin.com/MA/Norwell/26-Hillcrest-CIR-02061/unit-16/home/171446346,MLS PIN,72649048,N,Y,42.1615157,-70.7927832
MLS Listing,,Single Family Residential,26 Orchard Ln,Duxbury,MA,02332,679900,3,2.5,Duxbury,2274,31363,1986,6,299,83,Active,,,http://www.redfin.com/MA/Duxbury/26-Orchard-Ln-02332/home/16341420,MLS PIN,72648911,N,Y,42.0574552,-70.6936633
MLS Listing,,Condo/Co-op,112 Oak Ln #9,Brockton,MA,02301,169996,2,1.0,Brockton,890,,1981,6,191,455,Active,,,http://www.redfin.com/MA/Brockton/112-Oak-Ln-02301/unit-9/home/16327970,MLS PIN,72648831,N,Y,42.1009757,-71.0474726
MLS Listing,,Condo/Co-op,39 Carriage #39,Duxbury,MA,02332,609900,2,3.0,Duxbury,2306,1089000,2016,6,264,387,Active,,,http://www.redfin.com/MA/Duxbury/39-Carriage-Ln-02332/unit-39/home/113236436,MLS PIN,72642397,N,Y,42.0419479,-70.7469501
MLS Listing,,Single Family Residential,14 French Ave,Wareham,MA,02576,360000,3,2.0,West Wareham,1538,49658,2014,7,234,,Active,,,http://www.redfin.com/MA/West-Wareham/14-French-Ave-02576/home/28941138,MLS PIN,72648803,N,Y,41.7443647,-70.756372
MLS Listing,,Single Family Residential,177 High St,Norwell,MA,02061,549000,3,2.5,Norwell,2068,73181,1966,7,265,,Active,,,http://www.redfin.com/MA/Norwell/177-High-St-02061/home/16403450,MLS PIN,72648772,N,Y,42.1607637,-70.8762602
MLS Listing,,Single Family Residential,10 Stone Gate Dr,Plymouth,MA,02360,689900,4,2.5,Stone Gate Farms,2880,12000,2020,7,240,,Active,,,http://www.redfin.com/MA/Plymouth/10-Stone-Gate-Dr-02360/home/85684685,MLS PIN,72648750,N,Y,41.938033,-70.719354
MLS Listing,,Multi-Family (2-4 Unit),50 Samoset St,Plymouth,MA,02360,550000,5,2.5,Downtown,1682,5620,1876,7,327,,Active,,,http://www.redfin.com/MA/Plymouth/50-Samoset-St-02360/home/16424779,MLS PIN,72648741,N,Y,41.9575892,-70.6738891
MLS Listing,,Single Family Residential,35 Grove St,Rockland,MA,02370,339900,3,1.0,Rockland,1278,9650,1900,7,266,,Active,,,http://www.redfin.com/MA/Rockland/35-Grove-St-02370/home/14810779,MLS PIN,72648721,N,Y,42.1264806,-70.9182933
MLS Listing,,Single Family Residential,780 Crescent St,East Bridgewater,MA,02333,529900,4,2.5,East Bridgewater,2200,45302,2020,7,241,,Active,,,http://www.redfin.com/MA/East-Bridgewater/780-Crescent-St-02333/home/16349613,MLS PIN,72648710,N,Y,42.0294111,-70.9104727
MLS Listing,,Single Family Residential,10 Ketch Rd,Plymouth,MA,02360,449900,3,2.0,Plymouth,1984,10019,1977,7,227,,Active,,,http://www.redfin.com/MA/Plymouth/10-Ketch-Rd-02360/home/16416795,MLS PIN,72648671,N,Y,41.8786721,-70.5372047
MLS Listing,,Single Family Residential,Lot 2A Jordan Way,Hingham,MA,02043,1699000,4,3.5,Hingham,4125,40153,2020,7,412,,Active,,,http://www.redfin.com/MA/Hingham/Lot-2A-Jordan-WAY-02043/home/171438411,MLS PIN,72648607,N,Y,42.2271881,-70.8833434
MLS Listing,,Condo/Co-op,2 Chapel Hill Dr #6,Plymouth,MA,02360,170000,2,1.0,Plymouth,895,,1971,7,190,429,Active,,,http://www.redfin.com/MA/Plymouth/2-Chapel-Hill-Dr-02360/unit-6/home/16424937,MLS PIN,72648564,N,Y,41.9474024,-70.6758485
MLS Listing,,Single Family Residential,6905 Oak Point Dr,Middleboro,MA,02346,259900,2,2.0,Middleboro,1764,,2002,7,147,748,Active,,,http://www.redfin.com/MA/Middleborough/6905-Oak-Point-Dr-02346/home/132917788,MLS PIN,72648468,N,Y,41.9398564,-70.9089722
MLS Listing,,Condo/Co-op,2 Beechwood Ln #2,Rockland,MA,02370,400000,2,1.5,Rockland,1175,,2006,8,340,290,Active,,,http://www.redfin.com/MA/Rockland/2-Beechwood-Ln-02370/unit-2/home/171435519,MLS PIN,72648446,N,Y,42.1010249,-70.904693
MLS Listing,,Single Family Residential,215 Cushing St,Hingham,MA,02043,749000,4,2.0,Hingham,2000,20800,1959,8,375,,Active,,,http://www.redfin.com/MA/Hingham/215-Cushing-St-02043/home/16361462,MLS PIN,72648391,N,Y,42.1991269,-70.9001801
MLS Listing,,Single Family Residential,Lot 3A Randall Rd,Mattapoisett,MA,02739,565000,4,3.0,Mattapoisett,2790,43832,2020,8,203,,Active,,,http://www.redfin.com/MA/Mattapoisett/3-Randall-Rd-02739/home/16391581,MLS PIN,72648367,N,Y,41.6630978,-70.7913923
MLS Listing,,Single Family Residential,98 Forest St,Pembroke,MA,02359,799900,4,2.5,North Pembroke,2700,138993,2020,8,296,,Active,,,http://www.redfin.com/MA/Pembroke/98-Forest-St-02359/home/171433048,MLS PIN,72648331,N,Y,42.0519742,-70.7835218
MLS Listing,,Single Family Residential,100 Forest St,Pembroke,MA,02359,724900,4,2.5,North Pembroke,2200,137581,2020,8,330,,Active,,,http://www.redfin.com/MA/Pembroke/100-Forest-St-02359/home/171432796,MLS PIN,72648319,N,Y,42.0517137,-70.7837817
MLS Listing,,Single Family Residential,140 Eliab Latham Way,East Bridgewater,MA,02333,624900,4,2.5,East Bridgewater,2926,21926,2000,8,214,38,Active,,,http://www.redfin.com/MA/East-Bridgewater/140-Eliab-Latham-Way-02333/home/16346906,MLS PIN,72648253,N,Y,42.0165853,-70.9235878
MLS Listing,,Single Family Residential,44 Boatwrights Loop,Plymouth,MA,02360,599900,3,2.5,Boatwright's Loop,2187,6362,2016,8,274,248,Active,,,http://www.redfin.com/MA/Plymouth/44-Boatwright-s-Loop-02360/home/145258819,MLS PIN,72648242,N,Y,41.878583,-70.593508
MLS Listing,,Vacant Land,0 Teakettle Ln,Duxbury,MA,02332,1200000,,,Duxbury,,338461,,8,,,Active,,,http://www.redfin.com/MA/Duxbury/Teakettle-Ln-02332/home/171430450,MLS PIN,72648218,N,Y,42.0547911,-70.708211
MLS Listing,,Single Family Residential,8 Churchill Ave,Brockton,MA,02301,314900,3,1.0,Brockton,1183,7410,1949,8,266,,Active,,,http://www.redfin.com/MA/Brockton/8-Churchill-Ave-02301/home/16317822,MLS PIN,72648214,N,Y,42.0588511,-71.0187032
MLS Listing,,Single Family Residential,56 Village Ln,Hanover,MA,02339,1085000,4,5.0,Anderson Farm,4854,45302,1994,8,224,,Active,,,http://www.redfin.com/MA/Hanover/56-Village-Ln-02339/home/16354137,MLS PIN,72648180,N,Y,42.1334224,-70.8928417
MLS Listing,,Townhouse,139 Split Rock Unit B,Mattapoisett,MA,02739,599900,2,2.5,Mattapoisett,1984,,2020,8,302,250,Active,,,http://www.redfin.com/MA/Mattapoisett/139-Split-Rock-Ln-02739/unit-B/home/171428471,MLS PIN,72648173,N,Y,41.6755737,-70.8012914
MLS Listing,,Single Family Residential,8 Old Stage Rd,Wareham,MA,02576,439900,3,2.0,"Secluded, Quiet Neighborhood, 6 houses on the street, +/- 1 miles from 195 and 495, 1,000ft RTE 28",1570,39000,2020,8,280,,Active,,,http://www.redfin.com/MA/West-Wareham/8-Old-Stage-RD-02576/home/171428340,MLS PIN,72648161,N,Y,41.7803507,-70.7584767
MLS Listing,,Single Family Residential,9 Old Stage Coach Rd,Wareham,MA,02576,499900,3,2.0,"Secluded, Quiet Neighborhood, 6 houses on the street, +/- 1 miles from 195 and 495, 1,000ft RTE 28",1570,48000,2020,8,318,,Active,,,http://www.redfin.com/MA/West-Wareham/9-Old-Stagecoach-Rd-02576/home/171428338,MLS PIN,72648160,N,Y,41.787291,-70.752703
MLS Listing,,Mobile/Manufactured Home,47 Fir Cir,Rockland,MA,02370,215900,2,2.0,Leisurewoods,1200,,1990,8,180,664,Active,,,http://www.redfin.com/MA/Rockland/47-Fir-Cir-02370/home/171428124,MLS PIN,72648144,N,Y,42.1352618,-70.9285451
MLS Listing,,Single Family Residential,77 Bayridge Ln,Duxbury,MA,02332,649900,3,2.0,Duxbury,1704,22651,1946,8,381,,Active,,,http://www.redfin.com/MA/Duxbury/77-Bayridge-Ln-02332/home/16345508,MLS PIN,72648140,N,Y,42.0223746,-70.6925225
MLS Listing,,Single Family Residential,7 West St,Middleboro,MA,02346,234900,4,1.0,Middleboro,1552,12632,1880,8,151,,Active,,,http://www.redfin.com/MA/Middleborough/7-West-St-02346/home/16396129,MLS PIN,72648099,N,Y,41.8940522,-70.9212773
MLS Listing,,Single Family Residential,154 Bartlett Rd,Plymouth,MA,02360,349900,3,1.0,Plymouth,1317,27405,1975,8,266,,Active,,,http://www.redfin.com/MA/Plymouth/154-Bartlett-Rd-02360/home/16417518,MLS PIN,72648082,N,Y,41.9043249,-70.5607378
MLS Listing,,Single Family Residential,2602 Green St,Middleboro,MA,02346,298000,2,2.0,Oak Point,1680,,2001,8,177,748,Active,,,http://www.redfin.com/MA/Middleborough/2602-Green-St-02346/home/171427175,MLS PIN,72648066,N,Y,41.9363927,-70.9100244
MLS Listing,,Single Family Residential,8 S View Way,Plymouth,MA,02360,648440,3,2.5,Redbrook,2100,14444,2020,8,309,180,Active,,,http://www.redfin.com/MA/Plymouth/Southview-Way-02360/home/167710406,MLS PIN,72648054,N,Y,41.825366,-70.618139
MLS Listing,,Single Family Residential,12 Boatwright's Loop,Plymouth,MA,02360,649900,2,2.5,Boatwight's Loop,3185,13428,2013,8,204,180,Active,,,http://www.redfin.com/MA/Plymouth/12-Boatwright-s-Loop-02360/home/85684889,MLS PIN,72648040,N,Y,41.879909,-70.594262
MLS Listing,,Multi-Family (2-4 Unit),39 Mayflower St,Plymouth,MA,02360,458000,4,2.0,Downtown,1859,24356,1900,8,246,,Active,,,http://www.redfin.com/MA/Plymouth/39-Mayflower-St-02360/home/16420229,MLS PIN,72641551,N,Y,41.9511813,-70.6613426
MLS Listing,,Single Family Residential,8 Barnswallow Ln,Plymouth,MA,02360,789000,3,3.0,The Pinehills,3404,13069,2003,9,232,388,Active,,,http://www.redfin.com/MA/Plymouth/8-Barnswallow-Ln-02360/home/16430274,MLS PIN,72647936,N,Y,41.8929914,-70.5939721
MLS Listing,,Condo/Co-op,685 Oak St Unit 9-7,Brockton,MA,02301,219900,2,1.5,Brockton,1146,,1985,9,192,454,Active,,,http://www.redfin.com/MA/Brockton/685-Oak-St-02301/unit-9-7/home/16332510,MLS PIN,72647922,N,Y,42.1029951,-71.0556016
MLS Listing,,Condo/Co-op,6 Bridget's Way #6,Lakeville,MA,02347,350000,3,2.5,Lakeville,1568,,2020,9,223,150,Active,,,http://www.redfin.com/MA/Lakeville/6-Bridget-s-WAY-02347/unit-6/home/171425923,MLS PIN,72647913,N,Y,41.8306204,-70.9665682
MLS Listing,,Townhouse,12 Bridget's Way #12,Lakeville,MA,02347,375000,3,2.5,Lakeville,1974,,2020,9,190,150,Active,,,http://www.redfin.com/MA/Lakeville/12-Bridget-s-WAY-02347/unit-12/home/171425912,MLS PIN,72647909,N,Y,41.8306204,-70.9665682
MLS Listing,,Townhouse,83 Tribou St #24,Brockton,MA,02301,259000,3,1.5,Brockton,1668,,1988,9,155,325,Active,,,http://www.redfin.com/MA/Brockton/83-Tribou-St-02301/unit-24/home/138469314,MLS PIN,72647907,N,Y,42.068362,-71.0213279
MLS Listing,,Single Family Residential,65 Barlow Ave,Wareham,MA,02576,252700,3,1.0,Rose Point,700,8000,1928,9,361,4,Active,,,http://www.redfin.com/MA/West-Wareham/65-Barlow-Ave-02576/home/16444940,MLS PIN,72647888,N,Y,41.7420652,-70.7500608
MLS Listing,,Townhouse,18 Jamison Way #18,Plymouth,MA,02360,639000,3,3.0,Pinehills,2134,,2015,9,299,497,Active,,,http://www.redfin.com/MA/Plymouth/18-Jamison-Way-02360/unit-18/home/171425856,MLS PIN,72647887,N,Y,41.8763204,-70.5951894
MLS Listing,,Single Family Residential,17 Marsh Rd,Kingston,MA,02364,549000,6,3.0,Kingston,2886,20473,1934,10,190,,Active,,,http://www.redfin.com/MA/Kingston/17-Marsh-Rd-02364/home/16373711,MLS PIN,72647845,N,Y,41.9968007,-70.7115806
MLS Listing,,Single Family Residential,95 Magoun Ave,Brockton,MA,02301,339900,3,1.5,Brockton,1488,6599,1925,10,228,,Active,,,http://www.redfin.com/MA/Brockton/95-Magoun-Ave-02301/home/16331248,MLS PIN,72647840,N,Y,42.0648494,-71.0348497
MLS Listing,,Single Family Residential,47 B,Hull,MA,02045,739900,4,2.0,Alphabets,2139,5080,1930,10,346,,Active,,,http://www.redfin.com/MA/Hull/47-B-St-02045/home/16369924,MLS PIN,72647825,N,Y,42.2930238,-70.8792096
MLS Listing,,Single Family Residential,Lot 9 Ramsdell Pl,Hanson,MA,02341,574900,4,2.5,Hanson,2128,79279,2020,10,270,,Active,,,http://www.redfin.com/MA/Hanson/9-Ramsdell-Pl-02341/home/171422102,MLS PIN,72647757,N,Y,42.0368812,-70.8443011
MLS Listing,,Single Family Residential,49 Sunflower Way,Plymouth,MA,02360,399900,2,2.5,Plymouth,1664,1200,2020,10,240,330,Active,,,http://www.redfin.com/MA/Plymouth/49-Sunflower-Way-02360/home/169154456,MLS PIN,72647735,N,Y,41.8308367,-70.6199197
MLS Listing,,Single Family Residential,197 High St,Duxbury,MA,02332,739000,4,2.5,West Duxbury,2620,40000,1826,10,282,,Active,,,http://www.redfin.com/MA/Duxbury/197-High-St-02332/home/16344712,MLS PIN,72647726,N,Y,42.0548737,-70.7699522
MLS Listing,,Single Family Residential,354 Winter St,Norwell,MA,02061,849900,4,3.5,Norwell,3384,53900,2002,11,251,,Active,,,http://www.redfin.com/MA/Norwell/354-Winter-St-02061/home/16401072,MLS PIN,72647700,N,Y,42.1825677,-70.7765492
MLS Listing,,Condo/Co-op,1191 Nantasket Ave #5,Hull,MA,02045,279000,2,2.0,Hull,1175,,1985,11,237,479,Active,,,http://www.redfin.com/MA/Hull/1191-Nantasket-Ave-02045/unit-5/home/16365765,MLS PIN,72647687,N,Y,42.3057846,-70.9043515
MLS Listing,,Single Family Residential,Lot 4-2 Coopers Run,Kingston,MA,02364,629900,4,2.5,Coopers Run,2200,40003,2020,11,286,,Active,,,http://www.redfin.com/MA/Kingston/Lot-4-2-Coopers-RUN-02364/home/171417082,MLS PIN,72647591,N,Y,41.9851794,-70.7525299
MLS Listing,,Single Family Residential,Lot 4-1 Coopers Run,Kingston,MA,02364,629900,4,2.5,Coopers Run,2200,41420,2020,11,286,,Active,,,http://www.redfin.com/MA/Kingston/Lot-4-1-Coopers-RUN-02364/home/171417081,MLS PIN,72647590,N,Y,41.9851794,-70.7525299
MLS Listing,,Single Family Residential,14 Trout Farm Ln,Duxbury,MA,02332,529000,2,3.0,Duxbury,2148,21762,1988,11,246,175,Active,May-6-2020 05:00 PM,May-6-2020 07:00 PM,http://www.redfin.com/MA/Duxbury/14-Trout-Farm-Ln-02332/home/16343276,MLS PIN,72647542,N,Y,42.024574,-70.7408752
MLS Listing,,Single Family Residential,42 Screenhouse Ln Lot 19,Plymouth,MA,02360,537400,3,2.5,Deer Pond Subdivision-Screenhouse Lane,2588,17389,2020,11,208,8,Active,,,http://www.redfin.com/MA/Plymouth/42-Screenhouse-Ln-02360/unit-19/home/170433826,MLS PIN,72647538,N,Y,41.8169331,-70.6084127
MLS Listing,,Single Family Residential,22 Pondview Ave,Pembroke,MA,02359,349000,2,2.0,Pembroke,1092,11350,1928,11,320,,Active,,,http://www.redfin.com/MA/Pembroke/22-Pondview-Ave-02359/home/16404669,MLS PIN,72647531,N,Y,42.0623245,-70.8294385
MLS Listing,,Vacant Land,0 Griffith St,Hull,MA,02045,249000,,,Hull,,29040,,11,,,Active,,,http://www.redfin.com/MA/Hull/Griffith-ST-02045/home/171414791,MLS PIN,72647453,N,Y,42.3016073,-70.9011786
MLS Listing,,Single Family Residential,2 Beach St,Mattapoisett,MA,02739,935000,2,2.0,Crescent Beach,1575,4623,1957,11,594,,Active,,,http://www.redfin.com/MA/Mattapoisett/2-Beach-St-02739/home/16393488,MLS PIN,72647427,N,Y,41.6520251,-70.7794993
MLS Listing,,Single Family Residential,31 Fallons Pt,Hanson,MA,02341,499000,3,2.0,DIRECT POND FRONT,1640,8712,1982,11,304,,Active,,,http://www.redfin.com/MA/Hanson/31-Fallon-Pt-02341/home/16358105,MLS PIN,72643713,N,Y,42.062574,-70.8427244
MLS Listing,,Condo/Co-op,100 Oak Ln #4,Brockton,MA,02301,149000,2,1.0,Brockton,890,,1981,11,167,395,Active,,,http://www.redfin.com/MA/Brockton/100-Oak-Ln-02301/unit-4/home/16328562,MLS PIN,72647394,N,Y,42.1010658,-71.0474921
MLS Listing,,Single Family Residential,99 Hobomock St,Pembroke,MA,02359,689900,5,2.5,Pembroke,3136,55160,1998,11,220,,Active,,,http://www.redfin.com/MA/Pembroke/99-Hobomock-St-02359/home/16408294,MLS PIN,72647387,N,Y,42.0508554,-70.8062581
MLS Listing,,Single Family Residential,314 Central Ave,Scituate,MA,02066,799000,4,3.0,Humarock,1920,12023,1950,11,416,,Active,,,http://www.redfin.com/MA/SCITUATE/314-CENTRAL-AVE-02066/home/16435135,MLS PIN,72647371,N,Y,42.157676,-70.703949
MLS Listing,,Townhouse,260 N Warren Ave Unit B10,Brockton,MA,02301,217000,2,1.5,Brockton,1750,,1988,11,124,303,Active,,,http://www.redfin.com/MA/Brockton/260-Warren-Ave-02301/unit-B10/home/16327120,MLS PIN,72647357,N,Y,42.0806199,-71.0228353
MLS Listing,,Single Family Residential,105 Stayner #105,Hingham,MA,02043,889000,3,3.0,Hingham,2596,,2013,11,342,698,Active,,,http://www.redfin.com/MA/Hingham/105-Stayner-02043/unit-105/home/148350077,MLS PIN,72647323,N,Y,42.2271881,-70.8833434
MLS Listing,,Single Family Residential,149 Acorn St,Marshfield,MA,02050,659000,3,2.5,Marshfield,2958,14247,1940,12,223,,Active,,,http://www.redfin.com/MA/Marshfield/149-Acorn-St-02050/home/16388471,MLS PIN,72647280,N,Y,42.0833033,-70.714454
MLS Listing,,Mobile/Manufactured Home,2804 Oak Pt,Middleboro,MA,02346,268900,3,2.0,Oak Point Estate,1512,10000,2000,12,178,,Active,,,http://www.redfin.com/MA/Middleborough/2804-Oak-Point-Dr-02346/home/171410574,MLS PIN,72647265,N,Y,41.9494209,-70.9007381
MLS Listing,,Single Family Residential,37 Martingale Ln,Plymouth,MA,02360,538000,4,2.0,Plymouth,2764,60075,1990,12,195,,Active,,,http://www.redfin.com/MA/Plymouth/37-Martingale-Ln-02360/home/16425615,MLS PIN,72647244,N,Y,41.8803794,-70.6231084
MLS Listing,,Single Family Residential,96 Sunset Ave,Brockton,MA,02301,375900,3,1.0,Brockton,1344,6930,1961,12,280,,Active,,,http://www.redfin.com/MA/Brockton/96-Sunset-Ave-02301/home/16331094,MLS PIN,72647233,N,Y,42.0674456,-71.0321915
MLS Listing,,Single Family Residential,55 Elm Ave,Brockton,MA,02301,379900,3,2.0,Brockton,1742,7423,1876,12,218,,Active,,,http://www.redfin.com/MA/Brockton/55-Elm-Ave-02301/home/16325330,MLS PIN,72647214,N,Y,42.0792087,-71.031379
MLS Listing,,Single Family Residential,20 Shady Oak Dr,Mattapoisett,MA,02739,300000,3,2.0,Mattapoisett,1576,21008,1985,12,190,,Active,,,http://www.redfin.com/MA/Mattapoisett/20-Shady-Oak-Dr-02739/home/16392107,MLS PIN,72647210,N,Y,41.6972681,-70.8318076
MLS Listing,,Single Family Residential,619 central St,East Bridgewater,MA,02333,499899,4,2.5,corner of Lorraine Drive,2060,16213,2020,12,243,,Active,,,http://www.redfin.com/MA/East-Bridgewater/619-Central-St-02333/home/16346830,MLS PIN,72647205,N,Y,42.0320383,-70.9390621
MLS Listing,,Townhouse,138 Elm St #19,Kingston,MA,02364,399900,2,1.5,Kingston,1200,,2020,12,333,185,Active,,,http://www.redfin.com/MA/Kingston/138-Elm-St-02364/unit-19/home/171408925,MLS PIN,72647162,N,Y,41.9846982,-70.7384754
MLS Listing,,Multi-Family (2-4 Unit),902 Bedford,Whitman,MA,02382,550000,7,3.5,Whitman,3600,8015,1900,12,153,,Active,,,http://www.redfin.com/MA/Whitman/902-Bedford-St-02382/home/16455437,MLS PIN,72647127,N,Y,42.0852142,-70.9479694
MLS Listing,,Single Family Residential,250 Rocky Hill Rd,Plymouth,MA,02360,729000,4,3.5,Plymouth,3754,93218,2005,12,194,,Active,,,http://www.redfin.com/MA/Plymouth/250-Rocky-Hill-Rd-02360/home/16418851,MLS PIN,72647123,N,Y,41.9478644,-70.5879155
MLS Listing,,Single Family Residential,22 Old Schoolhouse Ln,Hanover,MA,02339,789900,4,3.5,Whiting Village,3634,74052,1992,12,217,29,Active,,,http://www.redfin.com/MA/Hanover/22-Old-School-House-Ln-02339/home/16353771,MLS PIN,72647120,N,Y,42.1317678,-70.8834595
MLS Listing,,Single Family Residential,45 Keens Way,Pembroke,MA,02359,649900,5,3.5,North Pembroke,3924,40252,1984,12,166,,Active,,,http://www.redfin.com/MA/Pembroke/45-Keens-Way-02359/home/16407788,MLS PIN,72647094,N,Y,42.0865832,-70.7702077
MLS Listing,,Single Family Residential,4 Fernway,Middleboro,MA,02346,599900,4,2.5,Middleboro,3700,80100,2005,12,162,,Active,,,http://www.redfin.com/MA/Middleborough/4-Fern-Way-02346/home/16400139,MLS PIN,72647091,N,Y,41.8307062,-70.8719406
MLS Listing,,Vacant Land,0 Spring St,West Bridgewater,MA,02379,129000,,,West Bridgewater,,345866,,12,,,Active,,,http://www.redfin.com/MA/WEST-BRIDGEWATER/SPRING-ST-02379/home/76486764,MLS PIN,72647025,N,Y,42.027064,-71.0186
MLS Listing,,Condo/Co-op,29 Ladds Way #29,Scituate,MA,02066,649000,3,2.5,Scituate,2432,,1987,12,267,712,Active,,,http://www.redfin.com/MA/Scituate/29-Ladds-Way-02066/unit-29/home/109505952,MLS PIN,72646998,N,Y,42.1773886,-70.7415155
MLS Listing,,Single Family Residential,19 Bradford Ter,Plymouth,MA,02360,439000,4,2.0,Manomet Beach Shores,2276,9584,1957,12,193,,Active,,,http://www.redfin.com/MA/Plymouth/19-Bradford-Ter-02360/home/16422911,MLS PIN,72646940,N,Y,41.8937351,-70.5427746
MLS Listing,,Condo/Co-op,7 Spring Ave #7,Wareham,MA,02571,299000,2,2.0,Wareham,1150,72745,2020,12,260,245,Active,,,http://www.redfin.com/MA/Wareham/7-Spring-Ave-02571/unit-7/home/171406522,MLS PIN,72646927,N,Y,41.7720861,-70.6972367
MLS Listing,,Townhouse,39 Smith St #2,Middleboro,MA,02346,269900,2,1.5,Middleboro,1117,,1986,12,242,205,Active,,,http://www.redfin.com/MA/Middleborough/39-Smith-St-02346/unit-2/home/16397690,MLS PIN,72646899,N,Y,41.8434379,-70.850373
MLS Listing,,Single Family Residential,14 A St,Marshfield,MA,02020,265000,1,1.0,Blue Fish Cove,480,3500,1940,13,552,,Active,,,http://www.redfin.com/MA/BRANT-ROCK/14-A-ST-02020/home/16381817,MLS PIN,72646822,N,Y,42.079864,-70.643047
MLS Listing,,Single Family Residential,11 Rodwell St,Brockton,MA,02302,334900,3,1.0,Brookfield,1056,11495,1960,13,317,,Active,,,http://www.redfin.com/MA/Brockton/11-Rodwell-St-02302/home/16328499,MLS PIN,72646806,N,Y,42.1143301,-71.0070834
MLS Listing,,Single Family Residential,121 Duck Hill Rd,Duxbury,MA,02332,925000,4,3.0,Duxbury,3022,56553,1812,13,306,,Active,,,http://www.redfin.com/MA/Duxbury/121-Duck-Hill-Rd-02332/home/16345880,MLS PIN,72646788,N,Y,42.0570603,-70.685204
MLS Listing,,Single Family Residential,249 W Elm St,Brockton,MA,02301,364900,6,2.5,Brockton,3195,10341,1929,13,114,,Active,,,http://www.redfin.com/MA/Brockton/249-W-Elm-St-02301/home/16325713,MLS PIN,72646751,N,Y,42.0817067,-71.0297887
MLS Listing,,Single Family Residential,266 East St,Brockton,MA,02302,348000,3,2.0,East Brockton,1492,28828,1955,13,233,,Active,,,http://www.redfin.com/MA/Brockton/266-East-St-02302/home/16319665,MLS PIN,72646749,N,Y,42.0680057,-70.994639
MLS Listing,,Vacant Land,69-B Gunrock Ave,Hull,MA,02045,550000,,,Hull,,6500,,13,,,Active,,,http://www.redfin.com/MA/Hull/69-Gunrock-Ave-02045/home/171397589,MLS PIN,72646729,N,Y,42.2677776,-70.838763
MLS Listing,,Multi-Family (2-4 Unit),54 Tribou St,Brockton,MA,02301,629900,10,3.0,Brockton,3378,4156,1889,13,186,,Active,,,http://www.redfin.com/MA/Brockton/54-Tribou-St-02301/home/16317556,MLS PIN,72646665,N,Y,42.0686346,-71.0199458
MLS Listing,,Single Family Residential,131 Boatwright's Loop,Plymouth,MA,02360,459999,2,2.5,Boatwright's Loop,1888,2260,2013,13,244,348,Active,,,http://www.redfin.com/MA/Plymouth/Boatwright-s-Loop-02360/home/50281031,MLS PIN,72646616,N,Y,41.879281,-70.594673
MLS Listing,,Single Family Residential,728 N CARY St,Brockton,MA,02302,559900,5,3.0,Brockton,2508,55063,2020,13,223,,Active,,,http://www.redfin.com/MA/Brockton/728-N-Cary-St-02302/home/171395207,MLS PIN,72646536,N,Y,42.1079057,-70.9992084
MLS Listing,,Vacant Land,0 Howard Ave,Brockton,MA,02302,950000,,,Brockton,,283140,,13,,,Active,,,http://www.redfin.com/MA/Brockton/0-Howard-Ave-02302/home/146677912,MLS PIN,72646432,N,Y,42.0835153,-70.9903438
MLS Listing,,Mobile/Manufactured Home,47 Leisurewoods,Rockland,MA,02370,239900,2,2.0,Rockland,1556,,1987,13,154,,Active,,,http://www.redfin.com/MA/Rockland/47-Leisurewoods-Dr-02370/home/53480004,MLS PIN,72646388,N,Y,42.1364421,-70.9266941
MLS Listing,,Single Family Residential,292 Pembroke St,Kingston,MA,02364,319900,3,1.0,Kingston,864,13068,1952,13,370,,Active,,,http://www.redfin.com/MA/Kingston/292-Pembroke-St-02364/home/16374593,MLS PIN,72646382,N,Y,42.0185047,-70.789627
MLS Listing,,Single Family Residential,147 Donna Dr,Hanover,MA,02339,1090000,6,5.0,Hanover,5097,89298,1970,13,214,,Active,,,http://www.redfin.com/MA/Hanover/147-Donna-Dr-02339/home/16353233,MLS PIN,72646376,N,Y,42.1223691,-70.8351754
MLS Listing,,Single Family Residential,95 Indian Trl,Scituate,MA,02066,699000,4,3.0,Scituate,2216,25918,1962,13,315,,Active,,,http://www.redfin.com/MA/Scituate/95-Indian-Trl-02066/home/16440141,MLS PIN,72645472,N,Y,42.2339516,-70.7765492
MLS Listing,,Single Family Residential,15 Walker Rd,Duxbury,MA,02332,724500,4,3.0,Duxbury,2376,45663,1985,13,305,,Active,,,http://www.redfin.com/MA/Duxbury/15-Walker-Rd-02332/home/16344903,MLS PIN,72645155,N,Y,42.0592309,-70.7178924
MLS Listing,,Single Family Residential,575 N Quincy St,Abington,MA,02351,459900,3,1.0,Abington,2150,45000,1962,14,214,,Active,,,http://www.redfin.com/MA/ABINGTON/575-N-QUINCY-ST-02351/home/16304711,MLS PIN,72646358,N,Y,42.12725,-71.001755
MLS Listing,,Single Family Residential,147 Coe Rd,Brockton,MA,02302,449900,5,2.0,Brockton,2712,11400,1970,14,166,,Active,,,http://www.redfin.com/MA/Brockton/147-Coe-Rd-02302/home/16329531,MLS PIN,72646349,N,Y,42.1026267,-70.9997004
MLS Listing,,Single Family Residential,14 Nicholas Ave,Plymouth,MA,02360,319000,2,1.0,Plymouth,1100,10000,1964,14,290,,Active,,,http://www.redfin.com/MA/Plymouth/14-Nicholas-Ave-02360/home/16411539,MLS PIN,72646337,N,Y,41.82242,-70.6021835
MLS Listing,,Single Family Residential,17 5Th St,Wareham,MA,02571,319900,4,2.0,Wareham,1256,1879,1991,14,255,,Active,,,http://www.redfin.com/MA/Wareham/17-5th-Ave-02571/home/171387624,MLS PIN,72646254,N,Y,41.7458332,-70.74143
MLS Listing,,Condo/Co-op,180 Main St #5202,Bridgewater,MA,02324,130000,1,1.0,Bridgewater,708,,1970,14,184,278,Active,,,http://www.redfin.com/MA/Bridgewater/180-Main-St-02324/unit-5202/home/16310169,MLS PIN,72646159,N,Y,41.9937888,-70.979446
MLS Listing,,Single Family Residential,196 Southfield Dr,Brockton,MA,02302,250000,4,1.0,Brockton,1316,10001,1971,14,190,,Active,,,http://www.redfin.com/MA/Brockton/196-Southfield-Dr-02302/home/16320359,MLS PIN,72646134,N,Y,42.0614385,-70.988974
MLS Listing,,Vacant Land,155 Micajah Pond Rd,Plymouth,MA,02360,170000,,,West Plymouth,,29000,,14,,,Active,,,http://www.redfin.com/MA/Plymouth/155-Micajah-Pond-Rd-02360/unit-R/home/16428117,MLS PIN,72646126,N,Y,41.9220987,-70.6965052
MLS Listing,,Single Family Residential,322 Sully Rd,Brockton,MA,02302,375000,4,2.0,Brockton,1520,16117,1960,14,247,,Active,,,http://www.redfin.com/MA/Brockton/322-Sully-Rd-02302/home/16326098,MLS PIN,72646113,N,Y,42.1185371,-71.0086853
MLS Listing,,Vacant Land,33 Trails End Cove Rd,Plymouth,MA,02360,460000,,,Cedarville,,161587,,14,,,Active,,,http://www.redfin.com/MA/Plymouth/33-Trails-End-Cv-02360/home/85684600,MLS PIN,72646056,N,Y,41.7941801,-70.5694072
MLS Listing,,Single Family Residential,7 Summit St,Lakeville,MA,02347,224900,2,1.0,Clark Shores,625,4791,1956,14,360,,Active,,,http://www.redfin.com/MA/Lakeville/7-Summit-Ave-02347/home/16378014,MLS PIN,72645981,N,Y,41.8208598,-70.9558642
MLS Listing,,Single Family Residential,621 W Chestnut St,Brockton,MA,02301,479900,4,3.0,Brockton,2252,13800,1976,14,213,,Active,,,http://www.redfin.com/MA/Brockton/621-W-Chestnut-St-02301/home/16332929,MLS PIN,72645976,N,Y,42.0561763,-71.0400034
MLS Listing,,Single Family Residential,26 Symington Dr,Plymouth,MA,02360,515000,2,2.0,Chadwick Corner,1786,,2015,14,288,456,Active,,,http://www.redfin.com/MA/Plymouth/Symington-Dr-02360/home/109891087,MLS PIN,72645969,N,Y,41.87854,-70.595757
MLS Listing,,Condo/Co-op,502 Oak St #9,Brockton,MA,02301,179900,2,1.0,Brockton,890,,1981,15,202,455,Active,,,http://www.redfin.com/MA/Brockton/502-Oak-St-02301/unit-9/home/16327923,MLS PIN,72645960,N,Y,42.1016128,-71.0473392
MLS Listing,,Vacant Land,1619 Ocean,Marshfield,MA,02050,399000,,,Marshfield,,18136,,15,,,Active,,,http://www.redfin.com/MA/Marshfield/1619-Ocean-St-02050/home/21971903,MLS PIN,72645943,N,Y,42.0928642,-70.6929871
MLS Listing,,Single Family Residential,51 Edgewater Way(WATERFRONT),Wareham,MA,02571,519900,2,1.5,"""Standish Shores""",1974,13500,1977,15,263,4,Active,,,http://www.redfin.com/MA/Wareham/51-Edgewater-Way-02571/home/16448423,MLS PIN,72645916,N,Y,41.7397474,-70.6993994
MLS Listing,,Single Family Residential,932 Point Rd,Marion,MA,02738,359900,3,1.0,Marion,1202,9148,1964,15,299,,Active,,,http://www.redfin.com/MA/Marion/932-Point-Rd-02738/home/16378738,MLS PIN,72645868,N,Y,41.7287153,-70.7537899
MLS Listing,,Single Family Residential,lot 7 A Randall Rd,Mattapoisett,MA,02739,564999,4,2.5,Mattapoisett,2672,68144,2020,15,211,,Active,,,http://www.redfin.com/MA/Mattapoisett/7-Randall-Rd-02739/home/170401043,MLS PIN,72645812,N,Y,41.6635847,-70.7918326
MLS Listing,,Single Family Residential,3 Ridgeview,Plymouth,MA,02360,799000,3,3.5,The Pinehills,4015,11192,2017,15,199,388,Active,,,http://www.redfin.com/MA/Plymouth/3-Ridgeview-02360/home/85684785,MLS PIN,72645708,N,Y,41.8981142,-70.5959841
MLS Listing,,Single Family Residential,11 Middle St,Marshfield,MA,02020,649000,3,1.5,Brant Rock,1200,4025,2019,15,541,,Active,,,http://www.redfin.com/MA/BRANT-ROCK/11-MIDDLE-ST-02020/home/16381493,MLS PIN,72645681,N,Y,42.091571,-70.643937
MLS Listing,,Single Family Residential,37 MAYFLOWER Ln,Rochester,MA,02770,512000,4,2.5,Mayflower Woods,2152,70132,2003,15,238,,Active,,,http://www.redfin.com/MA/Rochester/37-Mayflower-Ln-02770/home/16433443,MLS PIN,72645662,N,Y,41.7768825,-70.8099745
MLS Listing,,Single Family Residential,22 Pineview Ter,Brockton,MA,02301,344900,3,1.0,Brockton,1275,11212,1950,15,271,,Active,,,http://www.redfin.com/MA/Brockton/22-Pineview-Ter-02301/home/16334823,MLS PIN,72645657,N,Y,42.0727045,-71.0574607
MLS Listing,,Single Family Residential,44 Blissful Ln,Wareham,MA,02538,475000,4,2.5,East Wareham,1824,130680,2003,15,260,,Active,,,http://www.redfin.com/MA/East-Wareham/44-Blissful-Ln-02538/home/16451022,MLS PIN,72645644,N,Y,41.7959149,-70.644383
MLS Listing,,Multi-Family (2-4 Unit),87 Ford St,Brockton,MA,02301,499900,6,2.0,Brockton,3419,3184,1903,16,146,,Active,,,http://www.redfin.com/MA/Brockton/87-Ford-St-02301/home/16317955,MLS PIN,72645605,N,Y,42.0945398,-71.0234741
MLS Listing,,Single Family Residential,75 Frankton Ave,Brockton,MA,02301,358900,4,1.5,Brockton,1302,6930,1925,16,276,,Active,,,http://www.redfin.com/MA/Brockton/75-Frankton-Ave-02301/home/16321901,MLS PIN,72645603,N,Y,42.1121257,-71.029278
MLS Listing,,Single Family Residential,9 North St,Plymouth,MA,02360,529000,3,2.0,Waterfront Historical District,2127,4264,1830,16,249,,Active,,,http://www.redfin.com/MA/Plymouth/9-North-St-02360/home/16424347,MLS PIN,72645598,N,Y,41.9572638,-70.6643166
MLS Listing,,Single Family Residential,162 Clifton Ave,Brockton,MA,02301,389900,4,1.0,Brockton,1715,10803,1900,16,227,,Active,,,http://www.redfin.com/MA/Brockton/162-Clifton-Ave-02301/home/16323636,MLS PIN,72645571,N,Y,42.0580767,-71.0210807
MLS Listing,,Single Family Residential,238 Main St,Kingston,MA,02364,710000,3,3.0,Kingston,2939,37026,1874,16,242,,Active,,,http://www.redfin.com/MA/Kingston/238-Main-St-02364/home/16370801,MLS PIN,72645560,N,Y,41.9936124,-70.7351069
MLS Listing,,Single Family Residential,18 Bartlett Rd #18,Hanover,MA,02339,650000,2,2.5,Sconset Landing,2035,4356,2019,17,319,487,Active,,,http://www.redfin.com/MA/Hanover/18-Bartlett-Rd-02339/unit-18/home/171376048,MLS PIN,72645452,N,Y,42.1224155,-70.8334277
MLS Listing,,Single Family Residential,28 Bartlett Rd #28,Hanover,MA,02339,640000,2,2.5,Sconset Landing,2046,4356,2019,17,313,490,Active,,,http://www.redfin.com/MA/Hanover/28-Bartlett-Rd-02339/unit-28/home/171375507,MLS PIN,72645447,N,Y,42.1224155,-70.8334277
MLS Listing,,Single Family Residential,38 Stewart Pl #38,Scituate,MA,02066,500000,3,1.5,Scituate,1344,12196,1985,17,372,,Active,,,http://www.redfin.com/MA/Scituate/38-Stewart-Pl-02066/unit-38/home/77513921,MLS PIN,72645408,N,Y,42.2037299,-70.7273581
MLS Listing,,Single Family Residential,12 Sias Point Rd,Wareham,MA,02571,1179000,3,3.0,Onset,2400,18900,1973,17,491,,Active,,,http://www.redfin.com/MA/Wareham/12-Sias-Point-RD-02571/home/171125858,MLS PIN,72645346,N,Y,41.743897,-70.714539
MLS Listing,,Multi-Family (2-4 Unit),15 N Water St,Wareham,MA,02571,449900,5,3.5,Wareham,1890,4620,1881,17,238,,Active,,,http://www.redfin.com/MA/Wareham/15-N-Water-St-02571/home/16450371,MLS PIN,72645338,N,Y,41.7442879,-70.6532176
MLS Listing,,Single Family Residential,663 N Cary St,Brockton,MA,02302,339995,3,1.0,Montello,1278,22142,1925,17,266,,Active,,,http://www.redfin.com/MA/Brockton/663-N-Cary-St-02302/home/16329485,MLS PIN,72645315,N,Y,42.1066914,-71.001982
MLS Listing,,Mobile/Manufactured Home,132 Jupiter Cir,Wareham,MA,02576,69900,2,1.5,Great Hill Estates 55+ Community,980,,1977,17,71,502,Active,,,http://www.redfin.com/MA/West-Wareham/132-Jupiter-Cir-02576/home/170146846,MLS PIN,72645290,N,Y,41.786047,-70.7412472
MLS Listing,,Multi-Family (2-4 Unit),120-122 Oregon,East Bridgewater,MA,02333,529900,5,3.5,East Bridgewater,2100,26622,1900,18,252,,Active,,,http://www.redfin.com/MA/East-Bridgewater/120-Oregon-St-02333/home/16349117,MLS PIN,72645227,N,Y,42.0285801,-70.9652901
MLS Listing,,Single Family Residential,19 Surfside Rd,Scituate,MA,02066,1850000,4,4.0,Minot,2960,14462,1995,18,625,,Active,,,http://www.redfin.com/MA/Scituate/19-Surfside-Rd-02066/home/16440284,MLS PIN,72642171,N,Y,42.2332696,-70.7592433
MLS Listing,,Multi-Family (2-4 Unit),3 Bryant St,Brockton,MA,02302,474900,2,2.0,Brockton,1800,3650,,18,264,,Active,,,http://www.redfin.com/MA/Brockton/3-Bryant-St-02302/home/16335426,MLS PIN,72645102,N,Y,42.0865798,-71.0098694
MLS Listing,,Single Family Residential,36 Otis St,Brockton,MA,02302,354900,4,2.0,Brockton,1358,7902,1889,18,261,,Active,,,http://www.redfin.com/MA/Brockton/36-Otis-St-02302/home/16337124,MLS PIN,72645036,N,Y,42.0792808,-71.0138626
MLS Listing,,Townhouse,115 Bradstreete Xing #115,Plymouth,MA,02360,459900,2,2.0,Pinehills,1844,,2006,18,249,435,Active,,,http://www.redfin.com/MA/Plymouth/115-Bradstreete-Xing-02360/unit-115/home/113227479,MLS PIN,72644949,N,Y,41.8950958,-70.6111135
MLS Listing,,Single Family Residential,669 Franklin St,Duxbury,MA,02332,569000,4,2.0,West Duxbury,2361,47828,1966,18,241,,Active,,,http://www.redfin.com/MA/Duxbury/669-Franklin-St-02332/home/16343881,MLS PIN,72644920,N,Y,42.0614015,-70.7396242
MLS Listing,,Single Family Residential,347 Forest Ave,Brockton,MA,02301,299921,2,2.0,Brockton,1518,6177,1956,18,198,,Active,,,http://www.redfin.com/MA/Brockton/347-Forest-Ave-02301/home/16325122,MLS PIN,72644902,N,Y,42.0705324,-71.0344782
MLS Listing,,Townhouse,126 Warren Ave #2,Plymouth,MA,02360,599900,2,2.5,Plymouth,1910,,2007,18,314,,Active,,,http://www.redfin.com/MA/Plymouth/126-Warren-Ave-02360/unit-2/home/16871171,MLS PIN,72644895,N,Y,41.9436903,-70.6260781
MLS Listing,,Single Family Residential,15 Arbor Hills Dr #15,Kingston,MA,02364,484900,2,2.5,Kingston,2191,,2004,19,221,435,Active,,,http://www.redfin.com/MA/Kingston/15-Arbor-Hills-Dr-02364/unit-15/home/137932183,MLS PIN,72644812,N,Y,41.9876904,-70.7831462
MLS Listing,,Vacant Land,129 Center St,Carver,MA,02330,99900,,,Carver,,30927,,19,,,Active,,,http://www.redfin.com/MA/Carver/129-Center-St-02330/unit-A/home/16338902,MLS PIN,72644803,N,Y,41.913789,-70.7730385
MLS Listing,,Single Family Residential,258 Black Cat,Plymouth,MA,02360,329000,2,1.0,Plymouth,480,22614,1960,19,685,,Active,,,http://www.redfin.com/MA/Plymouth/258-Black-Cat-Rd-02360/home/16414661,MLS PIN,72644774,N,Y,41.9290277,-70.6763054
MLS Listing,,Townhouse,30 Stonebridge #30,Hanson,MA,02341,475000,2,2.5,Hanson,1836,,2006,19,259,440,Active,,,http://www.redfin.com/MA/Hanson/30-Stonebridge-Dr-02341/unit-30/home/144346199,MLS PIN,72644737,N,Y,42.0742354,-70.8697028
MLS Listing,,Single Family Residential,173 Pierce St,Rochester,MA,02770,600000,3,1.5,Rochester,2543,108464,1992,19,236,,Active,,,http://www.redfin.com/MA/Rochester/173-Pierce-St-02770/home/16432502,MLS PIN,72644726,N,Y,41.7727116,-70.7904167
MLS Listing,,Condo/Co-op,836 Nantasket Ave #10,Hull,MA,02045,259000,2,1.0,Hull,952,,1984,19,272,527,Active,,,http://www.redfin.com/MA/Hull/836-Nantasket-Ave-02045/unit-10/home/16370097,MLS PIN,72644688,N,Y,42.3041609,-70.8840502
MLS Listing,,Single Family Residential,51 IRVING St,Brockton,MA,02302,460000,4,2.0,Brockton,2399,15324,1950,19,192,,Active,,,http://www.redfin.com/MA/Brockton/51-Irving-St-02302/home/16317070,MLS PIN,72644669,N,Y,42.0754657,-71.0079192
MLS Listing,,Single Family Residential,Lot 5 Luke Dr,West Bridgewater,MA,02379,684900,4,2.5,Luke Estates,2800,64765,2020,19,245,,Active,,,http://www.redfin.com/MA/West-Bridgewater/Lot-5-Luke-DR-02379/home/168052917,MLS PIN,72644643,N,Y,42.0302666,-71.014118
MLS Listing,,Single Family Residential,20 Holly Tree Ln,Duxbury,MA,02332,739900,4,2.5,Duxbury,3500,44356,1973,19,211,,Active,,,http://www.redfin.com/MA/Duxbury/20-Holly-Tree-Ln-02332/home/16344722,MLS PIN,72644641,N,Y,42.0635743,-70.756177
MLS Listing,,Single Family Residential,51 Edward St,Brockton,MA,02302,293900,2,2.0,Brockton,1748,8682,1962,19,168,,Active,,,http://www.redfin.com/MA/Brockton/51-Edward-St-02302/home/16334287,MLS PIN,72644596,N,Y,42.0899442,-70.9792224
MLS Listing,,Single Family Residential,66 Cairn Rd,Brockton,MA,02302,334900,3,1.0,Brockton,1172,10711,1957,19,286,,Active,,,http://www.redfin.com/MA/Brockton/66-Cairn-Rd-02302/home/16333577,MLS PIN,72644587,N,Y,42.0960616,-70.9959857
MLS Listing,,Single Family Residential,4 Bassin Ln,Scituate,MA,02066,819900,2,1.0,Third Cliff,900,12373,1920,19,911,,Active,,,http://www.redfin.com/MA/Scituate/4-Bassin-Ln-02066/home/16434923,MLS PIN,72644521,N,Y,42.1823249,-70.7185429
MLS Listing,,Single Family Residential,481 Chandler St,Duxbury,MA,02332,610000,4,1.5,Duxbury,1792,40075,1970,20,340,,Active,,,http://www.redfin.com/MA/Duxbury/481-Chandler-St-02332/home/16343616,MLS PIN,72644373,N,Y,42.0480878,-70.7303445
MLS Listing,,Single Family Residential,51 Forest St,Duxbury,MA,02332,890000,4,3.0,Hemlock Woods,3454,40000,1993,20,258,,Active,,,http://www.redfin.com/MA/Duxbury/51-Forest-St-02332/home/16344627,MLS PIN,72644269,N,Y,42.0890334,-70.7497655
MLS Listing,,Single Family Residential,69 Auburn St,Brockton,MA,02302,285000,2,1.5,Brockton,1118,8163,1890,20,255,,Active,,,http://www.redfin.com/MA/Brockton/69-Auburn-St-02302/home/16321437,MLS PIN,72644247,N,Y,42.0612614,-71.0082558
MLS Listing,,Mobile/Manufactured Home,18 Timber Ln,Wareham,MA,02571,149900,2,2.0,Wareham,1088,5000,2007,20,138,502,Active,,,http://www.redfin.com/MA/Wareham/18-Timber-LN-02571/home/171348436,MLS PIN,72644242,N,Y,41.766258,-70.704952
MLS Listing,,Single Family Residential,19 Everett St,Carver,MA,02330,234900,2,1.0,South Carver,560,10890,1970,20,419,,Active,,,http://www.redfin.com/MA/Carver/19-Everett-St-02330/home/16338279,MLS PIN,72644238,N,Y,41.8384643,-70.7757827
MLS Listing,,Single Family Residential,19 Albert Ave,Brockton,MA,02302,329900,3,2.0,Brockton,984,8072,1970,20,335,,Active,,,http://www.redfin.com/MA/Brockton/19-Albert-Ave-02302/home/16335349,RIS,1251346,N,Y,42.0862994,-71.0069789
MLS Listing,,Single Family Residential,100 Fitzpatrick Ave,Brockton,MA,02301,319999,3,1.0,Brockton,1128,7222,1949,20,284,,Active,,,http://www.redfin.com/MA/Brockton/100-Fitzpatrick-Ave-02301/home/16327431,MLS PIN,72644152,N,Y,42.0934023,-71.0321451
MLS Listing,,Condo/Co-op,12 Carriage Ln #12,Duxbury,MA,02332,647000,2,2.5,Duxbury,2278,,2009,20,284,500,Active,,,http://www.redfin.com/MA/Duxbury/12-Carriage-Ln-02332/unit-12/home/113204444,MLS PIN,72644099,N,Y,42.0422211,-70.7483496
MLS Listing,,Condo/Co-op,6 Cranberry Grove Way Unit B,Wareham,MA,02571,249900,2,2.0,Wareham,1350,,2001,20,185,290,Active,,,http://www.redfin.com/MA/Wareham/6-Cranberry-Grove-Way-02571/unit-B/home/16451079,MLS PIN,72644068,N,Y,41.74758,-70.726293
MLS Listing,,Single Family Residential,15 Precinct St,Lakeville,MA,02347,499900,6,2.5,Lakeville,3044,145359,1790,20,164,,Active,,,http://www.redfin.com/MA/Lakeville/15-Precinct-St-02347/home/16375585,MLS PIN,72644049,N,Y,41.8477021,-70.9552063
MLS Listing,,Townhouse,34 Bagnell Dr #34,Pembroke,MA,02359,489000,2,2.5,North Pembroke,2161,,2002,20,226,422,Active,,,http://www.redfin.com/MA/Pembroke/Bagnell-Dr-02359/unit-34/home/136880998,MLS PIN,72644027,N,Y,42.0808736,-70.7819142
MLS Listing,,Townhouse,59 Buttercup Cir #90,Hanson,MA,02341,439900,2,2.5,Hanson,1986,,2011,20,222,440,Active,,,http://www.redfin.com/MA/Hanson/59-Buttercup-Cir-02341/unit-90/home/171342418,MLS PIN,72644025,N,Y,42.0726305,-70.8710944
MLS Listing,,Single Family Residential,65 W Elm St,Pembroke,MA,02359,599000,4,2.0,North Pembroke,2204,213879,1810,20,272,,Active,,,http://www.redfin.com/MA/Pembroke/65-W-Elm-St-02359/home/16406136,MLS PIN,72644024,N,Y,42.0765116,-70.8243752
MLS Listing,,Single Family Residential,31 Mullins Ave,Duxbury,MA,02332,785000,3,2.5,South Duxbury,1932,10019,2020,20,406,,Active,,,http://www.redfin.com/MA/Duxbury/31-Mullins-Ave-02332/home/16342335,MLS PIN,72644000,N,Y,42.0140308,-70.7054399
MLS Listing,,Single Family Residential,10-10R Nelson St,Plymouth,MA,02360,699500,3,1.5,Downtown,1612,21608,1900,20,434,,Active,,,http://www.redfin.com/MA/Plymouth/10-Nelson-St-02360/home/16424853,MLS PIN,72641605,N,Y,41.9658839,-70.6754226
MLS Listing,,Single Family Residential,1 TWIN'S BEACH Ln,Wareham,MA,02571,745000,4,3.0,Wareham,3248,65340,2000,21,229,,Active,,,http://www.redfin.com/MA/Wareham/1-Twin-s-Beach-Ln-02571/home/16446009,MLS PIN,72643933,N,Y,41.7351748,-70.7315525
MLS Listing,,Single Family Residential,234 Cross St,Bridgewater,MA,02324,539000,4,2.0,Bridgewater,2255,18710,1974,21,239,,Active,,,http://www.redfin.com/MA/Bridgewater/234-Cross-St-02324/home/16311915,MLS PIN,72643899,N,Y,41.9520517,-70.9879524
MLS Listing,,Single Family Residential,14 Gallops Hill Rd,Hull,MA,02045,879900,6,3.0,Hull,2989,6292,1910,21,294,,Active,,,http://www.redfin.com/MA/Hull/14-Gallops-Hill-Rd-02045/home/16370503,MLS PIN,72643895,N,Y,42.3033182,-70.9025952
MLS Listing,,Vacant Land,Lot 7 John Perkins Way,Middleboro,MA,02346,185000,,,Middleboro,,86248,,21,,,Active,,,http://www.redfin.com/MA/Middleborough/Lot-7-John-Perkins-WAY-02346/home/169299700,MLS PIN,72643841,N,Y,41.875212,-70.8357792
MLS Listing,,Multi-Family (2-4 Unit),22 Arlington St,Brockton,MA,02301,459900,4,3.0,Brockton,2718,5998,1880,21,169,,Active,,,http://www.redfin.com/MA/Brockton/22-Arlington-St-02301/home/16325457,MLS PIN,72643784,N,Y,42.0809906,-71.02691
MLS Listing,,Single Family Residential,11 E Central Ave,Wareham,MA,02571,289000,3,1.0,Wareham,1246,3750,1900,21,232,,Active,,,http://www.redfin.com/MA/Wareham/11-Central-Ave-02571/home/16449256,MLS PIN,72643763,N,Y,41.7426651,-70.6741679
MLS Listing,,Single Family Residential,338 High St,Hingham,MA,02043,697000,4,3.0,Fort Hill,2033,13908,1743,21,343,,Active,,,http://www.redfin.com/MA/HINGHAM/338-HIGH-ST-02043/home/16362287,MLS PIN,72643707,N,Y,42.214674,-70.915455
MLS Listing,,Vacant Land,00 High St,Bridgewater,MA,02324,100000,,,Bridgewater,,659825,,21,,,Active,,,http://www.redfin.com/MA/BRIDGEWATER/HIGH-ST-02324/home/109927866,MLS PIN,72643674,N,Y,42.000151,-70.959656
MLS Listing,,Single Family Residential,2 Franklin Rodgers Rd,Hingham,MA,02043,2085000,5,4.5,Conservatory Park,4987,43560,1999,21,418,,Active,,,http://www.redfin.com/MA/Hingham/2-Franklin-Rodgers-Rd-02043/home/16363599,MLS PIN,72643656,N,Y,42.2308656,-70.9140669
MLS Listing,,Vacant Land,145 Border St,Scituate,MA,02066,2150000,,,Scituate,,282269,,21,,,Active,,,http://www.redfin.com/MA/Scituate/145-Border-St-02066/home/167117478,MLS PIN,72643638,N,Y,42.2310991,-70.7837273
MLS Listing,,Single Family Residential,31 Bradford St,Marshfield,MA,02020,639000,3,2.5,Brant Rock,2798,11323,2002,21,228,,Active,,,http://www.redfin.com/MA/BRANT-ROCK/31-BRADFORD-ST-02020/home/16390923,MLS PIN,72643622,N,Y,42.086677,-70.641305
MLS Listing,,Single Family Residential,142 Carroll Ave,Brockton,MA,02301,359900,3,2.0,Brockton,1554,7200,1966,22,232,,Active,,,http://www.redfin.com/MA/Brockton/142-Carroll-Ave-02301/home/16318058,MLS PIN,72643621,N,Y,42.0643681,-71.0269374
MLS Listing,,Single Family Residential,11 Brisan Way,Pembroke,MA,02359,879900,4,2.5,Villas at Brookview,3211,82764,2020,22,274,,Active,,,http://www.redfin.com/MA/Pembroke/Brisan-Way-02359/home/167710053,MLS PIN,72643538,N,Y,42.077589,-70.784071
MLS Listing,,Mobile/Manufactured Home,16 Foxtail Dr,Kingston,MA,02364,199900,3,2.0,Conifer Green Estate (55+ community),1324,1324,1982,22,151,457,Active,,,http://www.redfin.com/MA/Kingston/16-Foxtail-Dr-02364/home/133764123,MLS PIN,72643382,N,Y,41.9842272,-70.756309
MLS Listing,,Single Family Residential,22 Woodside Ave,Wareham,MA,02532,449900,4,2.5,Buzzards Bay,2475,7200,1966,22,182,10,Active,,,http://www.redfin.com/MA/Buzzards-Bay/22-Woodside-Ave-02532/home/16449190,MLS PIN,72643365,N,Y,41.7512654,-70.629572
MLS Listing,,Condo/Co-op,521 Colony Pl Unit 4-305,Plymouth,MA,02360,342700,1,1.0,Plymouth,804,,2020,22,426,306,Active,,,http://www.redfin.com/MA/Plymouth/521-Colony-Pl-02360/unit-4-305/home/171314236,MLS PIN,72643307,N,Y,41.9519158,-70.7219622
MLS Listing,,Single Family Residential,96 Gardner St,Rockland,MA,02370,579900,4,2.5,Rockland,3450,32765,1998,22,168,,Active,,,http://www.redfin.com/MA/Rockland/96-Gardner-St-02370/home/14812893,MLS PIN,72643292,N,Y,42.1678693,-70.8958074
MLS Listing,,Single Family Residential,11 11th St,Halifax,MA,02338,364900,2,1.5,Halifax,1344,5000,2007,23,272,,Active,,,http://www.redfin.com/MA/Halifax/11-11th-Ave-02338/home/14807339,MLS PIN,72643244,N,Y,42.0003719,-70.8527534
MLS Listing,,Single Family Residential,216 Plain St,Bridgewater,MA,02324,499900,6,2.0,Bridgewater,2128,43561,1860,24,235,,Active,,,http://www.redfin.com/MA/Bridgewater/216-Plain-St-02324/home/16309530,MLS PIN,72643157,N,Y,42.0020226,-70.9316223
MLS Listing,,Townhouse,225 Lincoln St Unit G-1,Duxbury,MA,02332,479000,2,2.5,Duxbury,2100,,1981,25,228,611,Active,,,http://www.redfin.com/MA/Duxbury/225-Lincoln-St-02332/unit-G1/home/16342734,MLS PIN,72642975,N,Y,42.0542778,-70.7228566
MLS Listing,,Single Family Residential,54 Sunflower Way,Plymouth,MA,02360,459900,2,2.5,Redbrook,1708,5400,2020,25,269,180,Active,,,http://www.redfin.com/MA/Plymouth/54-Sunflower-Way-02360/home/171305815,MLS PIN,72642921,N,Y,41.8308367,-70.6199197
MLS Listing,,Single Family Residential,105 Saint George,Duxbury,MA,02332,959000,3,2.5,Duxbury,3103,60548,1797,25,309,,Active,,,http://www.redfin.com/MA/Duxbury/105-St-George-St-02332/home/16346021,MLS PIN,72642795,N,Y,42.0484209,-70.6772348
MLS Listing,,Single Family Residential,104 Myrtle St,Rockland,MA,02370,319900,4,1.0,Rockland,1400,9044,1900,25,229,,Active,,,http://www.redfin.com/MA/Rockland/104-Myrtle-St-02370/home/14811735,MLS PIN,72642774,N,Y,42.1363867,-70.91481
MLS Listing,,Single Family Residential,408 Holly Rd,Marshfield,MA,02050,629900,3,1.5,Holly Hill,3485,43560,1982,25,181,,Active,,,http://www.redfin.com/MA/Marshfield/408-Holly-Rd-02050/home/16387763,MLS PIN,72638158,N,Y,42.1260433,-70.7074147
MLS Listing,,Single Family Residential,1035 Main St,Norwell,MA,02061,1949000,5,5.5,Norwell,6500,318859,1985,25,300,,Active,,,http://www.redfin.com/MA/Norwell/1035-Main-St-02061/home/16402439,MLS PIN,72637411,N,Y,42.167129,-70.765658
MLS Listing,,Single Family Residential,143 Manomet Ave,Plymouth,MA,02360,599000,3,2.0,Plymouth,2708,14375,1898,26,221,,Active,,,http://www.redfin.com/MA/Plymouth/143-Manomet-Ave-02360/home/16423236,MLS PIN,72642669,N,Y,41.9117376,-70.5485025
MLS Listing,,Single Family Residential,63 Paddock Rd,Bridgewater,MA,02324,399000,3,1.5,Bridgewater,1248,31168,1971,26,320,,Active,,,http://www.redfin.com/MA/Bridgewater/63-Paddock-Rd-02324/home/16313983,MLS PIN,72642623,N,Y,41.9694303,-71.0327139
MLS Listing,,Vacant Land,19 Dublin Dr,Plymouth,MA,02360,124500,,,Plymouth,,8560,,26,,,Active,,,http://www.redfin.com/MA/Plymouth/19-Dublin-Dr-02360/home/113687621,MLS PIN,72642608,N,Y,41.8197437,-70.5480114
MLS Listing,,Single Family Residential,3 Lorraine Ave,Brockton,MA,02301,405000,3,1.5,Brockton,2044,5994,1960,26,198,,Active,,,http://www.redfin.com/MA/Brockton/3-Lorraine-Ave-02301/home/16331860,MLS PIN,72642542,N,Y,42.0685441,-71.0518893
MLS Listing,,Single Family Residential,123 Spring St,Bridgewater,MA,02324,459900,3,2.5,Bridgewater,2041,9000,1930,26,225,,Active,,,http://www.redfin.com/MA/Bridgewater/123-1-2-Spring-St-02324/home/16310766,MLS PIN,72642445,N,Y,41.9920296,-70.9704458
MLS Listing,,Single Family Residential,77 Queens Brook Rd,Pembroke,MA,02359,539900,3,2.0,Pembroke,2828,47562,1969,26,191,,Active,,,http://www.redfin.com/MA/Pembroke/77-Queens-Brook-Rd-02359/home/16404307,MLS PIN,72642355,N,Y,42.0565616,-70.8220926
MLS Listing,,Single Family Residential,7 Hillside Ave,Mattapoisett,MA,02739,334900,2,1.5,Mattapoisett,1154,15246,1960,26,290,,Active,,,http://www.redfin.com/MA/Mattapoisett/7-Hillside-Ave-02739/home/16391582,CCIMLS,22002136,N,Y,41.663162,-70.7924143
