SALE TYPE,SOLD DATE,PROPERTY TYPE,ADDRESS,CITY,STATE OR PROVINCE,ZIP OR POSTAL CODE,PRICE,BEDS,BATHS,LOCATION,SQUARE FEET,LOT SIZE,YEAR BUILT,DAYS ON MARKET,$/SQUARE FEET,HOA/MONTH,STATUS,NEXT OPEN HOUSE START TIME,NEXT OPEN HOUSE END TIME,URL (SEE http://www.redfin.com/buy-a-home/comparative-market-analysis FOR INFO ON PRICING),SOURCE,MLS#,FAVORITE,INTERESTED,LATITUDE,LONGITUDE
MLS Listing,,Condo/Co-op,10 Emmet St #2,Boston,MA,02127,424900,1,1.0,South Boston,375,375,1890,6,1133,135,Active,,,http://www.redfin.com/MA/Boston/10-Emmet-St-02127/unit-2/home/12439658,MLS PIN,72649102,N,Y,42.3369021,-71.0388543
MLS Listing,,Condo/Co-op,1754 Commonwealth Ave #12,Boston,MA,02135,499000,2,1.0,Boston,819,819,1910,12,609,415,Active,,,http://www.redfin.com/MA/Boston/1754-Commonwealth-Ave-02135/unit-12/home/9022982,MLS PIN,72647133,N,Y,42.3407852,-71.1498412
MLS Listing,,Condo/Co-op,109 D St #3,Boston,MA,02127,679000,2,1.0,South Boston,1062,1062,2006,12,639,155,Active,,,http://www.redfin.com/MA/Boston/109-D-St-02127/unit-3/home/18983096,MLS PIN,72646991,N,Y,42.3353257,-71.0546622
MLS Listing,,Condo/Co-op,109 N St #1,Boston,MA,02127,459000,1,1.0,South Boston,480,480,1920,12,956,140,Active,,,http://www.redfin.com/MA/Boston/109-N-St-02127/unit-1/home/11511722,MLS PIN,72646946,N,Y,42.3344853,-71.0314719
MLS Listing,,Condo/Co-op,1501 Commonwealth Ave #302,Boston,MA,02135,850000,2,2.0,Brighton,995,,2015,19,854,452,Active,,,http://www.redfin.com/MA/Boston/1501-Commonwealth-Ave-02135/unit-302/home/101661823,MLS PIN,72644605,N,Y,42.3475081,-71.1413866
MLS Listing,,Condo/Co-op,865 E 2nd St #1,Boston,MA,02127,899000,2,2.0,Boston,1687,1687,1899,40,533,200,Active,,,http://www.redfin.com/MA/Boston/865-E-2nd-St-02127/unit-1/home/21719483,MLS PIN,72638211,N,Y,42.3371892,-71.0282927
MLS Listing,,Townhouse,794 E 7Th St Unit K,Boston,MA,02127,1050000,2,2.5,South Boston,1152,1152,2000,54,911,442,Active,,,http://www.redfin.com/MA/Boston/794-E-7th-St-02127/unit-K/home/9303434,MLS PIN,72632411,N,Y,42.3326206,-71.0286744
MLS Listing,,Condo/Co-op,106 13th St #317,Boston,MA,02129,599000,2,2.0,Charlestown's Navy Yard,1077,,1920,62,556,1022,Active,,,http://www.redfin.com/MA/Boston/106-13th-St-02129/unit-317/home/9051197,MLS PIN,72628095,N,Y,42.377706,-71.0505749
MLS Listing,,Condo/Co-op,59 Fleet St #5,Boston,MA,02109,790000,2,1.0,Waterfront,792,792,1900,76,997,477,Active,,,http://www.redfin.com/MA/Boston/59-Fleet-St-02109/unit-5/home/9269712,MLS PIN,72621286,N,Y,42.3639789,-71.0513732
MLS Listing,,Condo/Co-op,156-160 Chelsea St #101,Boston,MA,02128,505000,1,2.0,East Boston,1377,1377,1945,83,367,461,Active,,,http://www.redfin.com/MA/Boston/156-Chelsea-St-02128/unit-101/home/21717224,MLS PIN,72618581,N,Y,42.3740594,-71.0341774
MLS Listing,,Condo/Co-op,650 Columbia Rd #1,Boston,MA,02125,425000,3,1.0,Dorchester's Uphams Corner,1297,,1907,88,328,200,Active,,,http://www.redfin.com/MA/Dorchester/650-Columbia-Rd-02125/unit-1/home/145353442,MLS PIN,72616901,N,Y,42.318819,-71.0637193
MLS Listing,,Condo/Co-op,574 E Broadway #2,Boston,MA,02127,579900,2,1.0,South Boston,702,702,1890,1,826,135,Active,,,http://www.redfin.com/MA/Boston/574-E-Broadway-02127/unit-2/home/18982360,MLS PIN,72651519,N,Y,42.3357744,-71.0411722
MLS Listing,,Townhouse,43 Worcester St #1,Boston,MA,02118,1775000,3,2.0,South End,2202,2202,1890,1,806,301,Active,,,http://www.redfin.com/MA/Boston/43-Worcester-St-02118/unit-1/home/9322330,MLS PIN,72651499,N,Y,42.338769,-71.0768884
MLS Listing,,Condo/Co-op,26 Bardwell St #1,Boston,MA,02130,929000,3,3.0,Jamaica Plain,1936,,2019,1,480,330,Active,May-9-2020 12:00 PM,May-9-2020 02:00 PM,http://www.redfin.com/MA/Jamaica-Plain/26-Bardwell-St-02130/unit-1/home/169600845,MLS PIN,72651460,N,Y,42.3079808,-71.1171624
MLS Listing,,Single Family Residential,52 Piedmont St,Boston,MA,02116,2249000,2,3.5,Bay Village,2400,653,1910,1,937,,Active,,,http://www.redfin.com/MA/Boston/52-Piedmont-St-02116/home/9263346,MLS PIN,72651412,N,Y,42.3496593,-71.0692183
MLS Listing,,Condo/Co-op,1313 Washington St #413,Boston,MA,02118,995000,1,1.0,South End,945,945,2002,1,1053,849,Active,,,http://www.redfin.com/MA/Boston/1313-Washington-St-02118/unit-413/home/9316667,MLS PIN,72651395,N,Y,42.3422378,-71.0685375
MLS Listing,,Condo/Co-op,63 Atlantic Ave Unit 5E,Boston,MA,02110,649000,1,1.0,Waterfront,591,,1920,1,1098,602,Active,,,http://www.redfin.com/MA/Boston/63-Atlantic-Ave-02110/unit-5E/home/28961455,MLS PIN,72651363,N,Y,42.3631262,-71.0513089
MLS Listing,,Condo/Co-op,3 Oakdale St #1,Boston,MA,02130,435000,2,1.0,Boston,757,701,1920,1,575,175,Active,,,http://www.redfin.com/MA/Boston/3-Oakdale-St-02130/unit-1/home/9145134,MLS PIN,72651355,N,Y,42.3129283,-71.1070809
MLS Listing,,Townhouse,616 E 8th St #0,Boston,MA,02127,1400000,3,2.5,South Boston,1950,,1910,1,718,,Active,,,http://www.redfin.com/MA/Boston/616-E-8th-St-02127/unit-616/home/40294336,MLS PIN,72651351,N,Y,42.3316257,-71.0365256
MLS Listing,,Condo/Co-op,7 Lothian Rd #6,Boston,MA,02135,420000,2,1.0,Brighton's Cleveland Circle,700,,1900,1,600,354,Active,,,http://www.redfin.com/MA/Brighton/7-Lothian-Rd-02135/unit-6/home/137405774,MLS PIN,72651348,N,Y,42.3403411,-71.1536477
MLS Listing,,Condo/Co-op,16 Harcourt St Unit 6B,Boston,MA,02116,1469000,2,2.0,Back Bay,1100,,1985,1,1335,1454,Active,,,http://www.redfin.com/MA/Boston/16-Harcourt-St-02116/unit-6B/home/166637489,MLS PIN,72651309,N,Y,42.346096,-71.078088
MLS Listing,,Condo/Co-op,97 Green St #3,Boston,MA,02130,1100000,3,2.0,Jamaica Plain,1225,,1905,1,898,225,Active,,,http://www.redfin.com/MA/Jamaica-Plain/97-Green-St-02130/unit-3/home/171536043,MLS PIN,72651253,N,Y,42.3112173,-71.1091664
MLS Listing,,Condo/Co-op,69 Preble Ph 2,Boston,MA,02127,989000,2,2.5,South Boston,1504,,2020,1,658,350,Active,,,http://www.redfin.com/MA/Boston/69-Preble-St-02109/unit-2/home/170215729,MLS PIN,72651245,N,Y,42.3290853,-71.0538866
MLS Listing,,Single Family Residential,118 W Concord St,Boston,MA,02118,4895000,4,4.0,South End,4554,2222,1875,1,1075,,Active,,,http://www.redfin.com/MA/Boston/118-W-Concord-St-02118/home/9289966,MLS PIN,72651227,N,Y,42.3392041,-71.076809
MLS Listing,,Condo/Co-op,23 Saint Gregory St #2,Boston,MA,02124,750000,3,2.5,Dorchester's Lower Mills,1875,,2017,1,400,212,Active,,,http://www.redfin.com/MA/Boston/23-St-Gregory-St-02124/unit-2/home/113012266,MLS PIN,72651213,N,Y,42.2757496,-71.0681035
MLS Listing,,Condo/Co-op,3 Battery Wharf #3606,Boston,MA,02109,2195000,2,2.0,Waterfront,1478,1478,2008,1,1485,2441,Active,,,http://www.redfin.com/MA/Boston/3-Battery-Wharf-02109/unit-3606/home/17486370,MLS PIN,72651178,N,Y,42.3673532,-71.0503107
MLS Listing,,Condo/Co-op,8 Linwood Sq #2,Boston,MA,02119,749999,2,2.5,Roxbury's Fort Hill,1681,,1900,1,446,225,Active,,,http://www.redfin.com/MA/Boston/8-Linwood-Sq-02119/unit-2/home/171535162,MLS PIN,72651195,N,Y,42.32846,-71.09404
MLS Listing,,Multi-Family (2-4 Unit),48 Charger St,Revere,MA,02151,849900,5,3.5,Revere,3673,5344,1991,1,231,,Active,,,http://www.redfin.com/MA/Revere/48-Charger-St-02151/home/9052822,MLS PIN,72651153,N,Y,42.4220914,-71.0157467
MLS Listing,,Townhouse,6 Summit Ave #2,Chelsea,MA,02150,539900,3,2.0,Chelsea,1410,,2020,1,383,,Active,,,http://www.redfin.com/MA/Chelsea/6-Summit-Ave-02150/unit-2/home/171534526,MLS PIN,72651151,N,Y,42.401029,-71.0249517
MLS Listing,,Single Family Residential,4 Destefano Rd,Boston,MA,02131,789999,3,2.5,Roslindale,1690,5644,1900,1,467,,Active,,,http://www.redfin.com/MA/Roslindale/4-Destefano-Rd-02131/home/9181825,MLS PIN,72651149,N,Y,42.284088,-71.1185087
MLS Listing,,Condo/Co-op,714 E 5th St #2,Boston,MA,02127,825000,2,2.0,South Boston's City Point,1379,,1875,1,598,205,Active,,,http://www.redfin.com/MA/Boston/714-E-5th-St-02127/unit-2/home/145472751,MLS PIN,72651134,N,Y,42.3341016,-71.0316198
MLS Listing,,Condo/Co-op,520 Dorchester Ave #2,Boston,MA,02127,899000,2,2.0,South Boston,1270,,2019,1,708,275,Active,,,http://www.redfin.com/MA/Boston/520-Dorchester-Ave-02127/unit-2/home/171533716,MLS PIN,72651089,N,Y,42.3314502,-71.0567625
MLS Listing,,Condo/Co-op,45 Church St #2,Boston,MA,02116,1389000,2,2.5,Bay Village,1295,,1954,1,1073,447,Active,,,http://www.redfin.com/MA/Boston/45-Church-St-02116/unit-2/home/9321338,MLS PIN,72651047,N,Y,42.3495087,-71.068123
MLS Listing,,Condo/Co-op,9 W Broadway #310,Boston,MA,02127,1069000,2,2.0,South Boston,1167,,1906,1,916,658,Active,,,http://www.redfin.com/MA/Boston/9-W-Broadway-02127/unit-310/home/11837639,MLS PIN,72650977,N,Y,42.3423405,-71.0578677
MLS Listing,,Condo/Co-op,790 E 4Th St #2,Boston,MA,02127,549900,1,1.0,South Boston,736,736,1890,1,747,200,Active,,,http://www.redfin.com/MA/Boston/790-E-4th-St-02127/unit-2/home/9323992,MLS PIN,72650965,N,Y,42.3350564,-71.0316786
MLS Listing,,Single Family Residential,616 E 8th St,Boston,MA,02127,1400000,3,2.5,South Boston,1950,,1910,1,718,,Active,,,http://www.redfin.com/MA/Boston/616-E-8th-St-02127/home/9193290,MLS PIN,72650940,N,Y,42.3316257,-71.0365256
MLS Listing,,Multi-Family (2-4 Unit),29 Winthrop Shore Dr,Winthrop,MA,02152,949000,3,2.5,Winthrop,3175,6149,1901,1,299,,Active,,,http://www.redfin.com/MA/Winthrop/29-Winthrop-Shore-Dr-02152/home/11513279,MLS PIN,72650934,N,Y,42.3713578,-70.968449
MLS Listing,,Condo/Co-op,44 Prince St #212,Boston,MA,02113,368649,1,1.0,North End,692,692,2005,1,533,184,Active,,,http://www.redfin.com/MA/Boston/44-Prince-St-02113/unit-212/home/12439676,MLS PIN,72650921,N,Y,42.3644389,-71.0549785
MLS Listing,,Condo/Co-op,505 Tremont St #210,Boston,MA,02116,2200000,2,2.0,South End,1561,,2004,2,1409,1713,Active,,,http://www.redfin.com/MA/Boston/505-Tremont-St-02116/unit-210/home/9325973,MLS PIN,72650880,N,Y,42.3449407,-71.0707026
MLS Listing,,Single Family Residential,5 Hubbard St,Boston,MA,02130,1370000,4,2.0,Jamaica Plain,2293,2255,1910,2,597,,Active,,,http://www.redfin.com/MA/Jamaica-Plain/5-Hubbard-St-02130/home/9142666,MLS PIN,72650865,N,Y,42.3164576,-71.1060677
MLS Listing,,Townhouse,21 Worcester St #1,Boston,MA,02118,2250000,4,3.5,South End,2688,,1865,2,837,502,Active,,,http://www.redfin.com/MA/Boston/21-Worcester-St-02118/unit-1/home/21957513,MLS PIN,72650800,N,Y,42.3381403,-71.0761406
MLS Listing,,Multi-Family (2-4 Unit),66 Winthrop Shore Dr,Winthrop,MA,02152,780000,6,5.0,Winthrop,3240,10871,1900,2,241,,Active,,,http://www.redfin.com/MA/Winthrop/66-Winthrop-Shore-Dr-02152/home/11514817,MLS PIN,72650795,N,Y,42.3732198,-70.9695955
MLS Listing,,Condo/Co-op,151 Tremont St Unit 12T,Boston,MA,02111,770000,1,1.0,Midtown,675,675,1968,2,1141,408,Active,,,http://www.redfin.com/MA/Boston/151-Tremont-St-02111/unit-12T/home/11837124,MLS PIN,72650794,N,Y,42.3544996,-71.0633802
MLS Listing,,Single Family Residential,26 Glenburnie Rd,Boston,MA,02132,689000,4,1.5,West Roxbury,1720,6000,1929,3,401,,Active,,,http://www.redfin.com/MA/West-Roxbury/26-Glenburnie-Rd-02132/home/9170605,MLS PIN,72650678,N,Y,42.2923978,-71.1444106
MLS Listing,,Condo/Co-op,255 Beacon St #2,Boston,MA,02116,689000,1,1.0,Back Bay,661,,1936,3,1042,313,Active,,,http://www.redfin.com/MA/Boston/255-Beacon-St-02116/unit-2/home/9249815,MLS PIN,72650644,N,Y,42.3534643,-71.078751
MLS Listing,,Condo/Co-op,1100 GOVERNORS Dr #24,Winthrop,MA,02152,269000,2,1.0,Winthrop,782,,1971,3,344,450,Active,,,http://www.redfin.com/MA/Winthrop/1100-Governors-Dr-02152/unit-24/home/11517858,MLS PIN,72650630,N,Y,42.3842018,-70.9817941
MLS Listing,,Single Family Residential,6 W Cedar St,Boston,MA,02108,4600000,5,5.0,Beacon Hill,3895,1450,1827,3,1181,,Active,,,http://www.redfin.com/MA/Boston/6-W-Cedar-St-02108/home/9260115,MLS PIN,72650579,N,Y,42.357491,-71.0694853
MLS Listing,,Condo/Co-op,520 Dorchester Ave Unit 5R,Boston,MA,02127,949000,2,2.0,South Boston,1270,,2019,3,747,275,Active,,,http://www.redfin.com/MA/Boston/520-Dorchester-Ave-02127/unit-5R/home/171516010,MLS PIN,72650540,N,Y,42.3314502,-71.0567625
MLS Listing,,Condo/Co-op,520 Dorchester Ave #5,Boston,MA,02127,979000,2,2.0,South Boston,1270,,2019,3,771,275,Active,,,http://www.redfin.com/MA/Boston/520-Dorchester-Ave-02127/unit-5/home/171515930,MLS PIN,72650537,N,Y,42.3314502,-71.0567625
MLS Listing,,Condo/Co-op,227 Havre #6,Boston,MA,02128,799000,3,2.0,East Boston,1345,,2020,3,594,255,Active,,,http://www.redfin.com/MA/Boston/227-Havre-St-02128/unit-6/home/171509378,MLS PIN,72650504,N,Y,42.3750894,-71.0357075
MLS Listing,,Condo/Co-op,1 Franklin St #1111,Boston,MA,02110,1150000,1,1.0,Boston,948,,2016,4,1213,630,Active,,,http://www.redfin.com/MA/Boston/1-Franklin-St-02110/unit-1111/home/145254399,MLS PIN,72650462,N,Y,42.3563166,-71.0595573
MLS Listing,,Single Family Residential,31 Jones Rd,Revere,MA,02151,489000,4,1.5,Beachmont,1594,4039,1939,4,307,,Active,,,http://www.redfin.com/MA/Revere/31-Jones-Rd-02151/home/11741452,MLS PIN,72650452,N,Y,42.3995421,-70.9891964
MLS Listing,,Condo/Co-op,39 Story St #3,Boston,MA,02127,549000,2,1.0,South Boston,608,608,1890,4,903,200,Active,,,http://www.redfin.com/MA/Boston/39-Story-St-02127/unit-3/home/9309660,MLS PIN,72650442,N,Y,42.3332994,-71.0425438
MLS Listing,,Parking,6 Whittier Pl,Boston,MA,02114,45000,,,West End,,60,,4,,210,Active,,,http://www.redfin.com/MA/Boston/6-Whittier-Pl-02114/home/12374971,MLS PIN,72650415,N,Y,42.3657336,-71.0669497
MLS Listing,,Single Family Residential,117 Franklin St,Revere,MA,02151,739900,4,2.5,Revere,2288,9750,2017,4,323,,Active,May-10-2020 12:00 PM,May-10-2020 02:00 PM,http://www.redfin.com/MA/Revere/117-Franklin-St-02151/home/66767284,MLS PIN,72650336,N,Y,42.4440911,-71.0176846
MLS Listing,,Condo/Co-op,84 O St #3,Boston,MA,02127,799000,3,1.5,South Boston,1231,1231,1890,4,649,196,Active,,,http://www.redfin.com/MA/Boston/84-O-St-02127/unit-3/home/9314181,MLS PIN,72650298,N,Y,42.3353122,-71.0289256
MLS Listing,,Condo/Co-op,54 Pleasant St #5,Boston,MA,02125,1040000,3,2.0,Dorchester's Savin Hill,1554,14688,2019,4,669,491,Active,,,http://www.redfin.com/MA/Dorchester/54-Pleasant-St-02125/unit-5/home/171497818,MLS PIN,72650292,N,Y,42.3149337,-71.0595731
MLS Listing,,Condo/Co-op,80 Broad St #604,Boston,MA,02110,1250000,2,2.0,Waterfront,1282,1282,2006,4,975,1228,Active,,,http://www.redfin.com/MA/Boston/80-Broad-St-02110/unit-604/home/12439459,MLS PIN,72650289,N,Y,42.35771,-71.0528312
MLS Listing,,Single Family Residential,171 Everett St,Boston,MA,02134,925000,5,1.5,Boston,1798,4500,1900,4,514,,Active,,,http://www.redfin.com/MA/Allston/171-Everett-St-02134/home/8993962,MLS PIN,72650285,N,Y,42.3589266,-71.1369373
MLS Listing,,Single Family Residential,31 Alaska St,Boston,MA,02119,300000,5,2.0,Roxbury,2574,4460,1889,4,117,,Active,,,http://www.redfin.com/MA/Boston/31-Alaska-St-02119/home/9291931,MLS PIN,72650282,N,Y,42.3207668,-71.0783991
MLS Listing,,Multi-Family (2-4 Unit),248 Princeton St,Boston,MA,02128,759995,4,3.0,East Boston,1966,2500,1900,4,387,,Active,,,http://www.redfin.com/MA/Boston/248-Princeton-St-02128/home/9106650,MLS PIN,72650265,N,Y,42.3796301,-71.0307638
MLS Listing,,Multi-Family (2-4 Unit),32 Summer,Boston,MA,02136,674900,5,2.0,Hyde Park,2730,6000,1935,4,247,,Active,,,http://www.redfin.com/MA/Hyde-Park/32-Summer-St-02136/home/9129098,MLS PIN,72650246,N,Y,42.257875,-71.1255181
MLS Listing,,Condo/Co-op,100 Shawmut Ave #414,Boston,MA,02118,793900,1,1.0,South End,628,,2021,4,1264,541,Active,,,http://www.redfin.com/MA/Boston/100-Shawmut-Ave-02118/unit-414/home/171495074,MLS PIN,72650165,N,Y,42.3466841,-71.0656551
MLS Listing,,Condo/Co-op,100 Shawmut Ave #411,Boston,MA,02118,709900,0,1.0,South End,558,,2021,4,1272,484,Active,,,http://www.redfin.com/MA/Boston/100-Shawmut-Ave-02118/unit-411/home/171494988,MLS PIN,72650157,N,Y,42.3466841,-71.0656551
MLS Listing,,Condo/Co-op,849 Cummins Hwy #2,Boston,MA,02126,399000,3,2.0,Boston,974,974,1910,4,410,200,Active,,,http://www.redfin.com/MA/Mattapan/849-Cummins-Hwy-02126/unit-2/home/171494987,MLS PIN,72650156,N,Y,42.2689097,-71.0964117
MLS Listing,,Condo/Co-op,50-56 Broadlawn Park #115,Boston,MA,02467,449000,2,2.0,West Roxbury's Chestnut Hill,1164,,1925,4,386,670,Active,,,http://www.redfin.com/MA/Chestnut-Hill/50-56-Broadlawn-Park-02467/unit-115/home/136779995,MLS PIN,72650133,N,Y,42.3023918,-71.1639988
MLS Listing,,Single Family Residential,109 Anawan Ave,Boston,MA,02132,1349000,5,3.5,West Roxbury's Bellevue Hill,2606,5750,1900,4,518,,Active,,,http://www.redfin.com/MA/West-Roxbury/109-Anawan-Ave-02132/home/9208290,MLS PIN,72650040,N,Y,42.2834678,-71.1497431
MLS Listing,,Condo/Co-op,17 Forbes #2,Boston,MA,02130,679000,2,2.0,Jamaica Plain,1247,1247,1905,4,545,227,Active,,,http://www.redfin.com/MA/Boston/17-Forbes-St-02130/unit-2/home/28494309,MLS PIN,72650009,N,Y,42.3217878,-71.1079546
MLS Listing,,Condo/Co-op,4 Battery Wharf #4402,Boston,MA,02109,1599000,1,1.5,Boston,1535,,2008,4,1042,2175,Active,,,http://www.redfin.com/MA/Boston/4-Battery-Wharf-02109/unit-4402/home/14155864,MLS PIN,72650008,N,Y,42.3670325,-71.0501714
MLS Listing,,Condo/Co-op,1313 Washington St #104,Boston,MA,02118,1769000,2,2.0,South End,1570,,2002,4,1127,1389,Active,,,http://www.redfin.com/MA/Boston/1313-Washington-St-02118/unit-104/home/9316445,MLS PIN,72649988,N,Y,42.3422378,-71.0685375
MLS Listing,,Condo/Co-op,65 Burbank #5,Boston,MA,02115,524999,1,1.0,The Fenway,406,,1900,4,1293,419,Active,,,http://www.redfin.com/MA/Boston/65-Burbank-St-02115/unit-5/home/9266822,MLS PIN,72649981,N,Y,42.344653,-71.0888614
MLS Listing,,Condo/Co-op,38 P St #8,Boston,MA,02127,1599000,2,2.5,South Boston,1799,,2019,4,889,599,Active,,,http://www.redfin.com/MA/Boston/38-P-St-02127/unit-8/home/148604961,MLS PIN,72649974,N,Y,42.3369828,-71.0271004
MLS Listing,,Condo/Co-op,510 Dorchester Ave Unit 3R,Boston,MA,02127,1199000,3,2.0,South Boston,1619,,2019,4,741,275,Active,,,http://www.redfin.com/MA/Boston/510-Dorchester-Ave-02127/unit-3R/home/163761936,MLS PIN,72649922,N,Y,42.3317163,-71.0567708
MLS Listing,,Condo/Co-op,88 Mount Vernon St #31,Boston,MA,02108,735000,1,1.0,Beacon Hill,512,512,1880,4,1436,377,Active,,,http://www.redfin.com/MA/Boston/88-Mt-Vernon-St-02108/unit-31/home/11509758,MLS PIN,72649914,N,Y,42.3578067,-71.0685506
MLS Listing,,Condo/Co-op,70 Mt. Vernon Unit 3A,Boston,MA,02108,2150000,3,2.0,Beacon Hill,1593,,1890,4,1350,1011,Active,,,http://www.redfin.com/MA/Boston/70-Mt-Vernon-St-02108/unit-3A/home/95949263,MLS PIN,72649847,N,Y,42.3579175,-71.0677443
MLS Listing,,Condo/Co-op,122 Calumet St #2,Boston,MA,02120,599000,3,1.0,Boston,1176,1176,1900,4,509,99999,Active,,,http://www.redfin.com/MA/Boston/122-Calumet-St-02120/unit-2/home/12432041,MLS PIN,72642851,N,Y,42.3310392,-71.1025124
MLS Listing,,Condo/Co-op,5-B Mill St #1,Boston,MA,02122,629000,2,2.0,Boston,1424,,2012,5,442,244,Active,,,http://www.redfin.com/MA/Dorchester/5B-Mill-St-02122/unit-1/home/167702700,MLS PIN,72649810,N,Y,42.3013692,-71.0516107
MLS Listing,,Condo/Co-op,129-131 Willow St #1,Boston,MA,02132,495000,2,1.0,Boston,1068,1068,1925,5,463,200,Active,,,http://www.redfin.com/MA/Boston/129-Willow-St-02132/unit-1/home/39610797,MLS PIN,72649789,N,Y,42.2905536,-71.1542099
MLS Listing,,Condo/Co-op,495 E Fourth St #2,Boston,MA,02127,899000,2,2.5,South Boston,1461,,1890,5,615,150,Active,,,http://www.redfin.com/MA/Boston/495-E-4th-St-02127/unit-2/home/52366285,MLS PIN,72649757,N,Y,42.3343787,-71.0453953
MLS Listing,,Single Family Residential,85 Marlborough St,Chelsea,MA,02150,399000,4,1.0,Chelsea,1758,1800,1900,5,227,,Active,,,http://www.redfin.com/MA/Chelsea/85-Marlborough-St-02150/home/11834042,MLS PIN,72649754,N,Y,42.3924577,-71.0293845
MLS Listing,,Condo/Co-op,70 E Brookline St #1,Boston,MA,02118,1049000,2,2.0,South End,1033,,2006,5,1015,441,Active,,,http://www.redfin.com/MA/Boston/70-E-Brookline-St-02118/unit-1/home/21717898,MLS PIN,72649682,N,Y,42.3379302,-71.0701437
MLS Listing,,Townhouse,20 Nonantum St Unit A,Boston,MA,02135,699000,3,2.5,Brighton,1311,1955,1997,5,533,200,Active,,,http://www.redfin.com/MA/Boston/20-Nonantum-St-02135/unit-A/home/9226904,MLS PIN,72649617,N,Y,42.3496179,-71.1686864
MLS Listing,,Townhouse,146 Worcester St #2,Boston,MA,02118,1079000,2,2.0,South End,1053,,1900,5,1025,172,Active,,,http://www.redfin.com/MA/Boston/146-Worcester-St-02118/unit-2/home/21718291,MLS PIN,72649571,N,Y,42.3410225,-71.0800901
MLS Listing,,Single Family Residential,110 Orange St,Boston,MA,02131,589900,3,1.5,Roslindale,1275,6451,1932,5,463,,Active,,,http://www.redfin.com/MA/Roslindale/110-Orange-St-02131/home/9173786,MLS PIN,72649512,N,Y,42.2819186,-71.1380978
MLS Listing,,Condo/Co-op,43 Westland Ave #609,Boston,MA,02115,879000,1,1.0,South End,847,847,2013,5,1038,557,Active,,,http://www.redfin.com/MA/Boston/43-Westland-Ave-02115/unit-609/home/54542609,MLS PIN,72649473,N,Y,42.3440463,-71.087888
MLS Listing,,Condo/Co-op,50 Commonwealth Ave #901,Boston,MA,02116,1850000,2,2.0,Back Bay,1260,,1926,5,1468,848,Active,,,http://www.redfin.com/MA/Boston/50-Commonwealth-Ave-02116/unit-901/home/9264444,MLS PIN,72649459,N,Y,42.3525431,-71.0739541
MLS Listing,,Condo/Co-op,165 Tremont St #801,Boston,MA,02111,2749000,3,2.5,Boston,2200,,2003,5,1250,1760,Active,,,http://www.redfin.com/MA/Boston/165-Tremont-St-02111/unit-801/home/9325899,MLS PIN,72649423,N,Y,42.3539341,-71.0636808
MLS Listing,,Condo/Co-op,28-30 Schuyler St #1,Boston,MA,02121,649000,3,2.5,Dorchester,1896,,1905,5,342,242,Active,,,http://www.redfin.com/MA/Boston/28-Schuyler-St-02121/unit-1/home/171472320,MLS PIN,72649422,N,Y,42.3086377,-71.0863743
MLS Listing,,Condo/Co-op,410 Boylston #04,Boston,MA,02116,2450000,3,2.5,Back Bay,2017,,1899,5,1215,691,Active,,,http://www.redfin.com/MA/Boston/410-Boylston-St-02116/unit-4/home/40196238,MLS PIN,72649329,N,Y,42.3511612,-71.0722225
MLS Listing,,Townhouse,182 N Shore Rd #7,Revere,MA,02151,399900,3,1.5,Point of Pines,1232,,2005,6,325,300,Active,,,http://www.redfin.com/MA/Revere/182-N-Shore-Rd-02151/unit-7/home/9061916,MLS PIN,72649296,N,Y,42.4376969,-70.9706009
MLS Listing,,Multi-Family (2-4 Unit),549 Bennington St,Boston,MA,02128,1349000,6,4.0,Boston,4351,5000,1899,6,310,,Active,,,http://www.redfin.com/MA/Boston/549-Bennington-St-02128/home/9115265,MLS PIN,72649293,N,Y,42.3821235,-71.0191095
MLS Listing,,Condo/Co-op,16 Everett St #102,Boston,MA,02130,1050000,2,2.0,Jamaica Plain,1452,1452,2019,6,723,428,Active,,,http://www.redfin.com/MA/Boston/16-Everett-St-02130/unit-102/home/171453474,MLS PIN,72649284,N,Y,42.3096374,-71.1087564
MLS Listing,,Condo/Co-op,16 Boardman St #104,Boston,MA,02128,699000,3,2.0,East Boston's Orient Heights,1206,,2019,6,580,355,Active,,,http://www.redfin.com/MA/Boston/16-Boardman-St-02128/unit-104/home/145987319,MLS PIN,72649279,N,Y,42.3874289,-71.0089407
MLS Listing,,Condo/Co-op,89 Central #3,Chelsea,MA,02150,550000,3,2.0,Chelsea,1040,,1920,6,529,250,Active,,,http://www.redfin.com/MA/Chelsea/89-02150/unit-3/home/171452955,MLS PIN,72649269,N,Y,42.389433,-71.032109
MLS Listing,,Condo/Co-op,465 Ashmont St #3,Boston,MA,02122,589000,2,2.0,Dorchester,1142,1142,1910,6,516,225,Active,,,http://www.redfin.com/MA/Boston/465-Ashmont-St-02122/unit-3/home/11838659,MLS PIN,72649267,N,Y,42.2884496,-71.0539759
MLS Listing,,Condo/Co-op,545 E 3rd #4,Boston,MA,02127,999900,2,2.5,South Boston,1382,,2019,6,724,504,Active,,,http://www.redfin.com/MA/Boston/545-E-3rd-St-02127/unit-4/home/171452231,MLS PIN,72649243,N,Y,42.3363824,-71.0381037
MLS Listing,,Single Family Residential,259 Wachusett St,Boston,MA,02130,729900,4,1.0,Bourne neighborhood,1768,4020,1926,6,413,,Active,,,http://www.redfin.com/MA/Boston/259-Wachusett-St-02130/home/9152576,MLS PIN,72649136,N,Y,42.2906482,-71.1173017
MLS Listing,,Condo/Co-op,550 Pleasant St #208,Winthrop,MA,02152,424900,1,1.0,Winthrop,1040,,2006,6,409,496,Active,,,http://www.redfin.com/MA/Winthrop/550-Pleasant-St-02152/unit-208/home/21472739,MLS PIN,72649103,N,Y,42.3808956,-70.9919353
MLS Listing,,Parking,35 Fay Street LG-56,Boston,MA,02118,125000,,,South Boston,,,,6,,76,Active,,,http://www.redfin.com/MA/Boston/35-Fay-St-02118/unit-511/home/21717537,MLS PIN,72649079,N,Y,42.3431334,-71.066215
MLS Listing,,Condo/Co-op,45 Coffey St #4,Boston,MA,02122,599000,2,2.0,Dorchester's Neponset,1279,,2015,6,468,207,Active,,,http://www.redfin.com/MA/Boston/45-Coffey-St-02122/unit-4/home/60299545,MLS PIN,72649061,N,Y,42.2887061,-71.048622
MLS Listing,,Condo/Co-op,210 South Unit 5-2,Boston,MA,02111,1039000,2,2.0,Leather District,1347,,1920,6,771,685,Active,,,http://www.redfin.com/MA/Boston/210-South-St-02111/unit-52/home/12440212,MLS PIN,72649032,N,Y,42.3498152,-71.0572819
MLS Listing,,Condo/Co-op,437 W 4Th St #437,Boston,MA,02127,2295000,4,3.5,South Boston,3120,1587,1890,6,736,,Active,,,http://www.redfin.com/MA/Boston/437-W-Fourth-St-02127/unit-437/home/171446009,MLS PIN,72649012,N,Y,42.3354808,-71.0478384
MLS Listing,,Condo/Co-op,275 Chelsea St #2,Boston,MA,02128,400000,2,1.0,East Boston,698,,2002,6,573,323,Active,,,http://www.redfin.com/MA/Boston/275-Chelsea-St-02128/unit-2/home/9317844,MLS PIN,72649011,N,Y,42.3763945,-71.0308479
MLS Listing,,Condo/Co-op,33 Sleeper #106,Boston,MA,02210,999000,1,1.0,Seaport District,1319,,1911,6,757,635,Active,,,http://www.redfin.com/MA/Boston/33-Sleeper-St-02210/unit-106/home/9252776,MLS PIN,72648991,N,Y,42.3519914,-71.0488968
MLS Listing,,Condo/Co-op,45 Houghton St #2,Boston,MA,02122,499900,3,1.0,Dorchester's Neponset,929,929,1905,6,538,175,Active,,,http://www.redfin.com/MA/Boston/45-Houghton-St-02122/unit-2/home/12432043,MLS PIN,72648979,N,Y,42.2948093,-71.0517364
MLS Listing,,Condo/Co-op,35 Perkins #35,Winthrop,MA,02152,365000,2,2.0,Winthrop,1050,,1900,6,348,330,Active,,,http://www.redfin.com/MA/Winthrop/35-Perkins-St-02152/unit-35/home/171445117,MLS PIN,72642755,N,Y,42.3716925,-70.9689798
MLS Listing,,Condo/Co-op,303 Shawmut Ave #12,Boston,MA,02118,1230000,2,1.0,South End,1071,,1900,6,1148,467,Active,,,http://www.redfin.com/MA/Boston/303-Shawmut-Ave-02118/unit-12/home/144109742,MLS PIN,72648873,N,Y,42.3425071,-71.0702516
MLS Listing,,Condo/Co-op,10 Orleans St #203,Boston,MA,02128,595000,2,2.0,Boston,1068,1068,1985,6,557,332,Active,,,http://www.redfin.com/MA/Boston/10-Orleans-St-02128/unit-203/home/11835222,MLS PIN,72648872,N,Y,42.3671811,-71.0390987
MLS Listing,,Condo/Co-op,234 Causeway St #807,Boston,MA,02114,1289000,2,2.0,Waterfront,1437,,1899,6,897,1079,Active,,,http://www.redfin.com/MA/Boston/234-Causeway-St-02114/unit-807/home/9319483,MLS PIN,72648870,N,Y,42.3667651,-71.0594153
MLS Listing,,Condo/Co-op,16 Ophir St #1,Boston,MA,02130,680000,2,1.5,Jamaica Plain,1147,,2015,6,593,230,Active,,,http://www.redfin.com/MA/Boston/16-Ophir-St-02130/unit-1/home/64452198,MLS PIN,72648868,N,Y,42.3106359,-71.1043126
MLS Listing,,Condo/Co-op,9 Rutland Sq #1,Boston,MA,02118,849000,1,1.0,South End,805,805,1910,6,1055,168,Active,,,http://www.redfin.com/MA/Boston/9-Rutland-Sq-02118/unit-1/home/9284385,MLS PIN,72648851,N,Y,42.3414877,-71.0775176
MLS Listing,,Condo/Co-op,27 Thelma Rd #1,Boston,MA,02122,529000,3,1.0,Dorchester,1121,1121,1905,6,472,175,Active,,,http://www.redfin.com/MA/Boston/27-Thelma-Rd-02122/unit-1/home/9330220,MLS PIN,72648837,N,Y,42.2946358,-71.054322
MLS Listing,,Condo/Co-op,42 8th St #5506,Boston,MA,02129,999000,2,2.0,Charlestown's Navy Yard,1277,,1899,6,782,977,Active,,,http://www.redfin.com/MA/Boston/42-8th-St-02129/unit-5506/home/11837799,MLS PIN,72648836,N,Y,42.3749988,-71.0520878
MLS Listing,,Condo/Co-op,233 Metropolitan Ave #2,Boston,MA,02131,789900,5,2.0,Roslindale,1730,,1910,6,457,300,Active,,,http://www.redfin.com/MA/Roslindale/233-Metropolitan-Ave-02131/unit-2/home/171443141,MLS PIN,72648000,N,Y,42.276773,-71.1268643
MLS Listing,,Condo/Co-op,233 Metropolitan Ave #1,Boston,MA,02131,489900,2,1.0,Roslindale,1000,,1910,6,490,200,Active,,,http://www.redfin.com/MA/Roslindale/233-Metropolitan-Ave-02131/unit-1/home/171443140,MLS PIN,72647998,N,Y,42.276773,-71.1268643
MLS Listing,,Condo/Co-op,1154 Washington St #4,Boston,MA,02118,1300000,2,2.0,South End,1486,1486,1899,7,875,736,Active,,,http://www.redfin.com/MA/Boston/1154-Washington-St-02118/unit-4/home/9281483,MLS PIN,72648781,N,Y,42.3433989,-71.0658707
MLS Listing,,Condo/Co-op,101 Lamartine #2,Boston,MA,02130,565000,2,1.0,Jamaica Plain,951,951,1989,7,594,275,Active,,,http://www.redfin.com/MA/Boston/101-Lamartine-St-02130/unit-2/home/12441495,MLS PIN,72648768,N,Y,42.3198431,-71.1030221
MLS Listing,,Condo/Co-op,454 Hanover St #6,Boston,MA,02113,549000,1,1.0,North End,550,550,1920,7,998,464,Active,,,http://www.redfin.com/MA/Boston/454-Hanover-St-02113/unit-6/home/9304784,MLS PIN,72648767,N,Y,42.3670407,-71.0528028
MLS Listing,,Condo/Co-op,46 Rosemont #1,Boston,MA,02122,459900,2,1.0,Dorchester,1008,,1905,7,456,200,Active,,,http://www.redfin.com/MA/Boston/46-Rosemont-St-02122/unit-1/home/9315417,MLS PIN,72648757,N,Y,42.2931793,-71.0548974
MLS Listing,,Condo/Co-op,38 Wentworth Ter #3,Boston,MA,02124,479000,3,2.0,Boston,1200,7900,1900,7,399,170,Active,,,http://www.redfin.com/MA/Boston/38-Wentworth-Ter-02124/unit-3/home/169736200,MLS PIN,72648726,N,Y,42.2868179,-71.0732458
MLS Listing,,Condo/Co-op,59 Dunster Rd #1,Boston,MA,02130,825000,3,1.0,Jamaica Plain,1515,,1910,7,545,150,Active,,,http://www.redfin.com/MA/Boston/59-Dunster-Rd-02130/unit-1/home/18982846,MLS PIN,72648719,N,Y,42.3108795,-71.1183299
MLS Listing,,Townhouse,22 Hawthorne #2,Boston,MA,02119,775000,3,2.5,Roxbury's Fort Hill,1618,,2005,7,479,294,Active,,,http://www.redfin.com/MA/Boston/22-Hawthorne-St-02119/unit-2/home/66781203,MLS PIN,72648718,N,Y,42.3243178,-71.0915334
MLS Listing,,Condo/Co-op,241 Washington St #2,Winthrop,MA,02152,359000,2,1.0,Winthrop,860,,1900,7,417,353,Active,,,http://www.redfin.com/MA/Winthrop/241-Washington-Ave-02152/unit-2/home/11514730,MLS PIN,72648713,N,Y,42.372223,-70.9726672
MLS Listing,,Condo/Co-op,77 Draper St #2,Boston,MA,02122,475000,2,1.0,Dorchester,1000,2656,1920,7,475,175,Active,,,http://www.redfin.com/MA/Dorchester/77-Draper-St-02122/unit-2/home/12431731,MLS PIN,72648712,N,Y,42.3041607,-71.0644712
MLS Listing,,Condo/Co-op,62 Chandler St #2,Boston,MA,02116,1025000,2,2.0,South End,813,,1900,7,1261,176,Active,,,http://www.redfin.com/MA/Boston/62-Chandler-St-02116/unit-2/home/9235469,MLS PIN,72648705,N,Y,42.3466399,-71.0718244
MLS Listing,,Condo/Co-op,10 Bowdoin St #311,Boston,MA,02114,779000,1,1.0,Beacon Hill,765,765,2004,7,1018,267,Active,,,http://www.redfin.com/MA/Boston/10-Bowdoin-St-02114/unit-311/home/9325799,MLS PIN,72648657,N,Y,42.3604711,-71.0621306
MLS Listing,,Condo/Co-op,330 Summit Ave #305,Boston,MA,02135,389000,1,1.0,Brighton,523,523,1910,7,744,336,Active,,,http://www.redfin.com/MA/Boston/330-Summit-Ave-02135/unit-305/home/11838492,MLS PIN,72648645,N,Y,42.3454211,-71.1407228
MLS Listing,,Condo/Co-op,621 E 1st St Unit D6,Boston,MA,02127,1599000,2,2.0,South Boston,1772,,2017,7,902,395,Active,,,http://www.redfin.com/MA/Boston/621-E-1st-St-02127/unit-D6/home/113208444,MLS PIN,72648630,N,Y,42.3379219,-71.0345943
MLS Listing,,Condo/Co-op,364 Marlborough St Unit B2,Boston,MA,02115,379000,1,1.0,Back Bay,312,312,1900,7,1215,230,Active,,,http://www.redfin.com/MA/Boston/364-Marlborough-St-02115/unit-B2/home/11735472,MLS PIN,72648626,N,Y,42.3505213,-71.0867681
MLS Listing,,Condo/Co-op,50 L St #1,Boston,MA,02127,775000,2,2.0,South Boston's City Point,1107,,2020,7,700,160,Active,,,http://www.redfin.com/MA/Boston/50-L-St-02127/unit-1/home/171438493,MLS PIN,72648612,N,Y,42.3367925,-71.0352136
MLS Listing,,Townhouse,4 Mermaid Ave Unit B,Revere,MA,02151,675000,4,3.5,Revere Beach,2651,,2002,7,255,300,Active,,,http://www.redfin.com/MA/Revere/4-Mermaid-Ave-02151/unit-B/home/9060013,MLS PIN,72648602,N,Y,42.4013693,-70.9852304
MLS Listing,,Condo/Co-op,242 Beacon St #3,Boston,MA,02116,4200000,3,3.0,Back Bay,2100,,1880,7,2000,1192,Active,,,http://www.redfin.com/MA/Boston/242-Beacon-St-02116/unit-3/home/9248060,MLS PIN,72648591,N,Y,42.3538151,-71.0796397
MLS Listing,,Condo/Co-op,50 L St #3,Boston,MA,02127,565000,1,1.0,South Boston's City Point,594,,2020,7,951,140,Active,,,http://www.redfin.com/MA/Boston/50-L-St-02127/unit-3/home/171438044,MLS PIN,72648582,N,Y,42.3367925,-71.0352136
MLS Listing,,Condo/Co-op,147 Sydney St #3,Boston,MA,02125,499900,2,1.0,Dorchester's Savin Hill,943,,1918,7,530,150,Active,,,http://www.redfin.com/MA/Boston/147-Sydney-St-02125/unit-3/home/9330413,MLS PIN,72648546,N,Y,42.3165335,-71.0523897
MLS Listing,,Condo/Co-op,52 Sudan St #2,Boston,MA,02125,579000,2,1.0,Dorchester,1072,1072,1905,7,540,260,Active,,,http://www.redfin.com/MA/Boston/52-Sudan-St-02125/unit-2/home/54513491,MLS PIN,72648526,N,Y,42.3166164,-71.0540524
MLS Listing,,Condo/Co-op,102 Boston #2,Boston,MA,02125,549000,2,2.0,South Boston's Andrew Square,814,814,1905,7,674,180,Active,,,http://www.redfin.com/MA/Boston/102-Boston-St-02125/unit-2/home/21717304,MLS PIN,72648520,N,Y,42.3260694,-71.0585218
MLS Listing,,Single Family Residential,1 Rowen Ct,Boston,MA,02130,675000,2,2.5,Jamaica Plain,1094,1200,1999,7,617,,Active,,,http://www.redfin.com/MA/Jamaica-Plain/1-Rowen-Ct-02130/home/9147040,MLS PIN,72648513,N,Y,42.309582,-71.1063402
MLS Listing,,Condo/Co-op,2 Cypress Rd #205,Boston,MA,02135,439000,1,1.0,Brighton,579,,1900,7,758,211,Active,May-10-2020 01:00 PM,May-10-2020 03:00 PM,http://www.redfin.com/MA/Boston/2-Cypress-Rd-02135/unit-205/home/9016260,MLS PIN,72648506,N,Y,42.3544883,-71.1495947
MLS Listing,,Condo/Co-op,198 W 6Th St #2,Boston,MA,02127,739000,2,2.0,South Boston,930,930,1890,7,795,200,Active,,,http://www.redfin.com/MA/Boston/198-W-Sixth-St-02127/unit-2/home/21626983,MLS PIN,72648495,N,Y,42.3356118,-71.0507368
MLS Listing,,Single Family Residential,11 Enfield St,Boston,MA,02130,1000000,4,2.5,Jamaica Plain,1931,1500,1900,7,518,,Active,,,http://www.redfin.com/MA/Jamaica-Plain/11-Enfield-St-02130/home/9142745,MLS PIN,72648459,N,Y,42.3162327,-71.1101992
MLS Listing,,Condo/Co-op,45 Lewis St #412,Boston,MA,02128,1171200,2,2.0,East Boston,1075,,2020,7,1089,930,Active,,,http://www.redfin.com/MA/Boston/45-Lewis-St-02128/unit-412/home/171436595,MLS PIN,72648455,N,Y,42.367359,-71.0418243
MLS Listing,,Vacant Land,108-110 Maywood St,Boston,MA,02119,460000,,,Boston,,2528,,8,,,Active,,,http://www.redfin.com/MA/Boston/108-Maywood-St-02119/home/169606848,MLS PIN,72648420,N,Y,42.316275,-71.078687
MLS Listing,,Condo/Co-op,8-10 Howell St #6,Boston,MA,02125,689000,2,2.0,Dorchester,1137,1137,2001,8,606,220,Active,,,http://www.redfin.com/MA/Boston/8-Howell-St-02125/unit-6/home/9311759,MLS PIN,72648402,N,Y,42.3247409,-71.0570788
MLS Listing,,Condo/Co-op,39 Lexington #5,Boston,MA,02128,640000,2,2.0,East Boston,980,5000,2019,8,653,300,Active,,,http://www.redfin.com/MA/Boston/39-Lexington-St-02128/unit-5/home/171433811,MLS PIN,72648362,N,Y,42.3773669,-71.0383501
MLS Listing,,Single Family Residential,51 Melville Ave,Boston,MA,02124,1100000,6,3.5,Melville Park,2997,8147,1880,8,367,,Active,,,http://www.redfin.com/MA/Boston/51-Melville-Ave-02124/home/9065589,MLS PIN,72648245,N,Y,42.2946631,-71.065864
MLS Listing,,Condo/Co-op,37 Farragut Rd #3,Boston,MA,02127,899000,2,1.0,South Boston,950,6300,2020,8,946,350,Active,,,http://www.redfin.com/MA/Boston/37-Farragut-Rd-02127/unit-3/home/171430975,MLS PIN,72648239,N,Y,42.3370169,-71.025401
MLS Listing,,Condo/Co-op,6 Whittier Pl Unit 12A,Boston,MA,02114,599000,1,1.0,West End,895,,1964,8,669,795,Active,,,http://www.redfin.com/MA/Boston/6-Whittier-Pl-02114/unit-12A/home/9228374,MLS PIN,72648215,N,Y,42.3657336,-71.0669497
MLS Listing,,Condo/Co-op,47 Soley St #1,Boston,MA,02129,1195000,3,2.0,Charlestown,1677,,1860,8,713,391,Active,,,http://www.redfin.com/MA/Boston/47-Soley-St-02129/unit-1/home/54785910,MLS PIN,72648188,N,Y,42.3749634,-71.0608837
MLS Listing,,Condo/Co-op,29 Morton Unit 29C,Boston,MA,02130,599000,2,2.0,Jamaica Plain,1345,,1989,8,445,631,Active,,,http://www.redfin.com/MA/Boston/29-Morton-St-02130/unit-29c/home/138175842,MLS PIN,72648146,N,Y,42.3007,-71.1107194
MLS Listing,,Vacant Land,28 Hansborough,Boston,MA,02124,250000,,,Dorchester,,4000,,9,,,Active,,,http://www.redfin.com/MA/Boston/28-Hansborough-St-02124/home/139823266,MLS PIN,72647958,N,Y,42.287917,-71.091699
MLS Listing,,Townhouse,1682 Washington St #2,Boston,MA,02118,879900,1,1.5,South End,995,995,1875,10,884,384,Active,,,http://www.redfin.com/MA/Boston/1682-Washington-St-02118/unit-2/home/9302342,MLS PIN,72647863,N,Y,42.3371242,-71.0754957
MLS Listing,,Condo/Co-op,210 Lincoln St #302,Boston,MA,02111,879000,1,1.0,Leather District,1318,,1899,10,667,480,Active,,,http://www.redfin.com/MA/Boston/210-Lincoln-St-02111/unit-302/home/11837448,MLS PIN,72647850,N,Y,42.3500594,-71.0585451
MLS Listing,,Single Family Residential,61 Whitin Ave,Revere,MA,02151,499974,3,3.0,Revere,2677,4800,1954,10,187,,Active,,,http://www.redfin.com/MA/Revere/61-Whitin-Ave-02151/home/9024010,MLS PIN,72647838,N,Y,42.4402489,-70.9650928
MLS Listing,,Condo/Co-op,55 I St #3,Boston,MA,02127,899000,3,2.5,South Boston,1753,1753,1999,11,513,300,Active,,,http://www.redfin.com/MA/Boston/55-I-St-02127/unit-3/home/9302705,MLS PIN,72647633,N,Y,42.3362422,-71.0401458
MLS Listing,,Condo/Co-op,461 Beacon St #5,Boston,MA,02115,1430000,2,2.0,Back Bay,1032,1032,1880,11,1386,329,Active,,,http://www.redfin.com/MA/Boston/461-Beacon-St-02115/unit-5/home/9244270,MLS PIN,72647570,N,Y,42.350934,-71.0881213
MLS Listing,,Condo/Co-op,402 Commercial St #4,Boston,MA,02109,995000,1,1.0,Waterfront,750,,1987,11,1327,375,Active,,,http://www.redfin.com/MA/Boston/402-Commercial-St-02109/unit-4/home/9230908,MLS PIN,72647522,N,Y,42.3666909,-71.0520156
MLS Listing,,Condo/Co-op,402 Commercial St #3,Boston,MA,02109,995000,2,1.0,Waterfront,750,,1987,11,1327,375,Active,,,http://www.redfin.com/MA/Boston/402-Commercial-St-02109/unit-3/home/9230905,MLS PIN,72647513,N,Y,42.3666909,-71.0520156
MLS Listing,,Single Family Residential,16 Beryl St,Boston,MA,02131,749000,5,2.5,Boston,2036,4090,1910,11,368,,Active,,,http://www.redfin.com/MA/Roslindale/16-Beryl-St-02131/home/9173659,MLS PIN,72647489,N,Y,42.2826838,-71.1395367
MLS Listing,,Condo/Co-op,6 Wellington St #1,Boston,MA,02118,725000,1,1.0,South End,980,980,1899,11,740,165,Active,,,http://www.redfin.com/MA/Boston/6-Wellington-St-02118/unit-1/home/9286991,MLS PIN,72647440,N,Y,42.3413647,-71.0818927
MLS Listing,,Condo/Co-op,1 Franklin St #2208,Boston,MA,02110,2395000,2,2.0,Midtown,1566,,2016,11,1529,1561,Active,,,http://www.redfin.com/MA/Boston/1-Franklin-St-02110/unit-2208/home/145254505,MLS PIN,72647413,N,Y,42.3563166,-71.0595573
MLS Listing,,Condo/Co-op,58 High St Ph 4,Boston,MA,02129,1239000,2,2.0,Charlestown,1459,1742,1899,11,849,240,Active,,,http://www.redfin.com/MA/Boston/58-High-St-02129/unit-4/home/9061517,MLS PIN,72647348,N,Y,42.3765061,-71.0641254
MLS Listing,,Condo/Co-op,2 Battery wharf #2410,Boston,MA,02109,3190000,2,2.5,Waterfront,2281,,2007,11,1399,4230,Active,,,http://www.redfin.com/MA/Boston/2-Battery-Wharf-02109/unit-2410/home/17486350,MLS PIN,72647334,N,Y,42.3671015,-71.0504206
MLS Listing,,Condo/Co-op,668 Massachusetts Ave #4,Boston,MA,02118,799000,1,1.0,Boston,859,859,1900,11,930,195,Active,,,http://www.redfin.com/MA/Boston/668-Massachusetts-Ave-02118/unit-4/home/45430343,MLS PIN,72647331,N,Y,42.3359622,-71.0759029
MLS Listing,,Multi-Family (2-4 Unit),123 Beacon St,Chelsea,MA,02150,729000,6,3.0,Chelsea,2961,2750,1900,11,246,,Active,,,http://www.redfin.com/MA/Chelsea/123-Beacon-St-02150/home/9007764,MLS PIN,72647317,N,Y,42.3907199,-71.0437642
MLS Listing,,Condo/Co-op,242 Beacon St #8,Boston,MA,02116,2495000,3,2.5,Back Bay,1986,1986,1884,11,1256,1015,Active,,,http://www.redfin.com/MA/Boston/242-Beacon-St-02116/unit-8/home/11836797,MLS PIN,72647310,N,Y,42.3538151,-71.0796397
MLS Listing,,Single Family Residential,169 W 9th St,Boston,MA,02127,1190000,4,4.0,South Boston,1588,1230,1900,11,749,,Active,,,http://www.redfin.com/MA/Boston/169-W-9th-St-02127/home/9189929,MLS PIN,72647296,N,Y,42.3337292,-71.0533402
MLS Listing,,Condo/Co-op,28 Hawthorne St #3,Chelsea,MA,02150,529900,2,1.0,Chelsea,1244,,1910,12,426,268,Active,,,http://www.redfin.com/MA/Chelsea/28-Hawthorne-St-02150/unit-3/home/171411081,MLS PIN,72647279,N,Y,42.3885472,-71.0372074
MLS Listing,,Condo/Co-op,28 Hawthorne St #2,Chelsea,MA,02150,469900,3,1.0,Chelsea,1126,,1910,12,417,242,Active,,,http://www.redfin.com/MA/Chelsea/28-Hawthorne-St-02150/unit-2/home/171411080,MLS PIN,72647278,N,Y,42.3885472,-71.0372074
MLS Listing,,Condo/Co-op,28 Hawthorne St #1,Chelsea,MA,02150,569900,3,3.0,Chelsea,2099,,1910,12,272,280,Active,,,http://www.redfin.com/MA/Chelsea/28-Hawthorne-St-02150/unit-1/home/171411078,MLS PIN,72647277,N,Y,42.3885472,-71.0372074
MLS Listing,,Townhouse,182 N Shore Rd #8,Revere,MA,02151,419900,3,1.5,Revere,1232,,2005,12,341,300,Active,,,http://www.redfin.com/MA/Revere/182-N-Shore-Rd-02151/unit-8/home/9061258,MLS PIN,72647264,N,Y,42.4383596,-70.9698625
MLS Listing,,Condo/Co-op,10 Sydney St #7,Boston,MA,02125,1350000,3,3.0,Boston,1920,,2019,12,703,327,Active,,,http://www.redfin.com/MA/Dorchester/10-Sydney-St-02125/unit-7/home/161242914,MLS PIN,72647263,N,Y,42.3119283,-71.0537232
MLS Listing,,Condo/Co-op,1313 Washington St #328,Boston,MA,02118,1140000,1,1.0,South End,991,,2002,12,1150,799,Active,,,http://www.redfin.com/MA/Boston/1313-Washington-St-02118/unit-328/home/9316617,MLS PIN,72647112,N,Y,42.3422378,-71.0685375
MLS Listing,,Condo/Co-op,99 Sumner #505,Boston,MA,02128,639900,1,1.0,East Boston,717,,2021,12,892,477,Active,,,http://www.redfin.com/MA/Boston/99-Sumner-St-02128/unit-505/home/171408179,MLS PIN,72647093,N,Y,42.3699466,-71.0422541
MLS Listing,,Condo/Co-op,99 Sumner #221,Boston,MA,02128,1359900,2,2.0,East Boston,1227,,2021,12,1108,1008,Active,,,http://www.redfin.com/MA/Boston/99-Sumner-St-02128/unit-221/home/171408178,MLS PIN,72647092,N,Y,42.3699466,-71.0422541
MLS Listing,,Condo/Co-op,99 Sumner #406,Boston,MA,02128,769900,1,1.0,East Boston,778,,2021,12,990,525,Active,,,http://www.redfin.com/MA/Boston/99-Sumner-St-02128/unit-406/home/171408007,MLS PIN,72647080,N,Y,42.3699466,-71.0422541
MLS Listing,,Condo/Co-op,130 Appleton St Unit 2F,Boston,MA,02116,1250000,2,1.5,South End,891,891,1866,12,1403,503,Active,,,http://www.redfin.com/MA/Boston/130-Appleton-St-02116/unit-2F/home/9253470,MLS PIN,72647044,N,Y,42.3448246,-71.0749868
MLS Listing,,Townhouse,60 Wenham St #2,Boston,MA,02130,950000,5,3.0,Boston,2058,2058,1917,12,462,300,Active,,,http://www.redfin.com/MA/Boston/60-Wenham-St-02130/unit-2/home/9320094,MLS PIN,72646974,N,Y,42.2973217,-71.1143957
MLS Listing,,Multi-Family (2-4 Unit),16 Cottage St,Chelsea,MA,02150,669999,5,2.0,Chelsea,2536,3000,1920,12,264,,Active,,,http://www.redfin.com/MA/Chelsea/16-Cottage-St-02150/home/11834046,MLS PIN,72646970,N,Y,42.391577,-71.031836
MLS Listing,,Condo/Co-op,54 Woodward St #2,Boston,MA,02127,615000,2,1.0,South Boston,897,897,1890,12,686,166,Active,,,http://www.redfin.com/MA/Boston/54-Woodward-St-02127/unit-2/home/9186936,MLS PIN,72646966,N,Y,42.3307405,-71.0553083
MLS Listing,,Multi-Family (2-4 Unit),14 Mount Calvary-Roslindale,Boston,MA,02131,749900,6,3.0,Boston,3531,10290,1890,12,212,,Active,,,http://www.redfin.com/MA/Roslindale/14-Mt-Calvary-Rd-02131/home/9182561,MLS PIN,72646961,N,Y,42.2808369,-71.1131702
MLS Listing,,Condo/Co-op,1313 Washington St #423,Boston,MA,02118,1475000,2,2.0,South End,1521,1521,2002,13,970,878,Active,,,http://www.redfin.com/MA/Boston/1313-Washington-St-02118/unit-423/home/9316701,MLS PIN,72646824,N,Y,42.3422378,-71.0685375
MLS Listing,,Condo/Co-op,1789 Centre St #303,Boston,MA,02132,689000,2,2.0,West Roxbury,1101,,2019,13,626,504,Active,,,http://www.redfin.com/MA/West-Roxbury/1789-Centre-St-02132/unit-303/home/167115206,MLS PIN,72646807,N,Y,42.2877501,-71.1527193
MLS Listing,,Condo/Co-op,559 E 5th #6,Boston,MA,02127,585000,1,1.0,South Boston,702,,2020,13,833,150,Active,,,http://www.redfin.com/MA/Boston/559-E-5th-St-02127/unit-6/home/171398274,MLS PIN,72646755,N,Y,42.3338226,-71.0379155
MLS Listing,,Condo/Co-op,10 Ticknor St #1,Boston,MA,02127,995000,5,2.0,South Boston,1790,,1890,13,556,269,Active,,,http://www.redfin.com/MA/Boston/10-Ticknor-St-02127/unit-1/home/21717319,MLS PIN,72646733,N,Y,42.3299238,-71.0362082
MLS Listing,,Single Family Residential,225 Savin Hill Ave,Boston,MA,02125,1795000,6,2.5,Dorchester,3400,5839,1898,13,528,,Active,,,http://www.redfin.com/MA/Dorchester/225-Savin-Hill-Ave-02125/home/9095277,MLS PIN,72646662,N,Y,42.3090701,-71.0471071
MLS Listing,,Condo/Co-op,45 Fottler Rd #6,Boston,MA,02126,249900,2,1.0,Boston,786,,1910,13,318,250,Active,,,http://www.redfin.com/MA/Boston/45-Fottler-Rd-02126/unit-6/home/9300379,MLS PIN,72646659,N,Y,42.2781382,-71.0964528
MLS Listing,,Vacant Land,98 Harvard St,Boston,MA,02124,175000,,,Dorchester,,2021,,13,,,Active,,,http://www.redfin.com/MA/Boston/98-Harvard-St-02124/home/171396460,MLS PIN,72646635,N,Y,42.296945,-71.0777573
MLS Listing,,Condo/Co-op,535 E First St #5,Boston,MA,02127,1175000,2,2.5,South Boston,1420,,2014,13,827,438,Active,,,http://www.redfin.com/MA/Boston/535-E-1st-St-02127/unit-5/home/109543749,MLS PIN,72646594,N,Y,42.3378433,-71.0385127
MLS Listing,,Condo/Co-op,52 Lithgow St #3,Boston,MA,02124,580000,3,2.0,Dorchester's Ashmont,1198,,1905,13,484,250,Active,,,http://www.redfin.com/MA/Dorchester-Center/52-Lithgow-St-02124/unit-3/home/171395604,MLS PIN,72646571,N,Y,42.2904854,-71.0686032
MLS Listing,,Condo/Co-op,52 Lithgow St #2,Boston,MA,02124,580000,3,2.0,Dorchester's Ashmont,1198,,1905,13,484,250,Active,,,http://www.redfin.com/MA/Dorchester-Center/52-Lithgow-St-02124/unit-2/home/171395572,MLS PIN,72646569,N,Y,42.2904854,-71.0686032
MLS Listing,,Single Family Residential,7 Belcher St,Revere,MA,02151,1275000,4,3.5,Suffolk County,2600,3824,2019,13,490,,Active,,,http://www.redfin.com/MA/Revere/7-Belcher-St-02151/home/169212220,MLS PIN,72646506,N,Y,42.3991923,-70.9849135
MLS Listing,,Condo/Co-op,342 Commonwealth Ave #4,Boston,MA,02115,649000,0,1.0,Back Bay,530,,1890,13,1225,284,Active,,,http://www.redfin.com/MA/Boston/342-Commonwealth-Ave-02115/unit-4/home/9306422,MLS PIN,72646498,N,Y,42.3489559,-71.0872662
MLS Listing,,Multi-Family (2-4 Unit),123 Pomona St,Revere,MA,02151,769900,6,3.0,Revere,2412,3740,1930,13,319,,Active,,,http://www.redfin.com/MA/Revere/123-Pomona-St-02151/home/9030510,MLS PIN,72646488,N,Y,42.4177545,-71.003508
MLS Listing,,Multi-Family (2-4 Unit),26 Angell St,Boston,MA,02124,925000,9,4.5,Dorchester,5550,5420,1905,13,167,,Active,,,http://www.redfin.com/MA/Boston/26-Angell-St-02124/home/9094394,MLS PIN,72646483,N,Y,42.2960576,-71.0888447
MLS Listing,,Condo/Co-op,150 Dorchester Ave #501,Boston,MA,02127,1595000,2,2.0,South Boston,2075,2075,2008,13,769,710,Active,,,http://www.redfin.com/MA/Boston/150-Dorchester-Ave-02127/unit-501/home/16874322,MLS PIN,72646472,N,Y,42.3418223,-71.0569152
MLS Listing,,Condo/Co-op,29 Milford St,Boston,MA,02118,1350000,3,1.5,South End,1290,1290,1899,13,1047,325,Active,,,http://www.redfin.com/MA/Boston/29-Milford-St-02118/unit-1/home/9280537,MLS PIN,72646410,N,Y,42.3441245,-71.0694065
MLS Listing,,Condo/Co-op,331 Chelsea #4,Boston,MA,02128,669000,2,2.0,East Boston,1000,2240,2020,14,669,242,Active,,,http://www.redfin.com/MA/Boston/331-Chelsea-St-02128/unit-4/home/171389362,MLS PIN,72646347,N,Y,42.3776852,-71.0293709
MLS Listing,,Single Family Residential,21-23 Sagamore St,Boston,MA,02125,1049000,5,2.0,Dorchester's Savin Hill,2200,6051,1905,14,477,,Active,,,http://www.redfin.com/MA/Dorchester/21-Sagamore-St-02125/home/9081908,MLS PIN,72646324,N,Y,42.3136789,-71.0548375
MLS Listing,,Condo/Co-op,111 Perkins St Ph 6,Boston,MA,02130,1349000,3,2.5,Jamaica Plain,2116,,1963,14,638,1324,Active,,,http://www.redfin.com/MA/Jamaica-Plain/111-Perkins-St-02130/unit-6/home/169288009,MLS PIN,72646305,N,Y,42.3222155,-71.1159742
MLS Listing,,Multi-Family (2-4 Unit),46 Addison,Chelsea,MA,02150,399900,4,2.0,Chelsea,2474,3333,1900,14,162,,Active,,,http://www.redfin.com/MA/Chelsea/46-Addison-St-02150/home/9012777,MLS PIN,72646233,N,Y,42.397577,-71.0335496
MLS Listing,,Condo/Co-op,849 Cummins Hwy #3,Boston,MA,02126,410000,3,2.0,Mattapan,1054,3875,1910,14,389,200,Active,,,http://www.redfin.com/MA/Mattapan/849-Cummins-Hwy-02126/unit-3/home/171387469,MLS PIN,72646225,N,Y,42.2689097,-71.0964117
MLS Listing,,Condo/Co-op,336 Saratoga St #7,Boston,MA,02128,549000,2,1.5,East Boston's Eagle Hill,1435,1435,1923,14,383,323,Active,,,http://www.redfin.com/MA/Boston/336-Saratoga-St-02128/unit-7/home/21717460,MLS PIN,72646203,N,Y,42.3788846,-71.0309328
MLS Listing,,Condo/Co-op,159 O St #2,Boston,MA,02127,629900,2,2.0,Boston,674,674,1905,14,935,213,Active,,,http://www.redfin.com/MA/Boston/159-O-St-02127/unit-2/home/25682846,MLS PIN,72646199,N,Y,42.3327178,-71.0294422
MLS Listing,,Vacant Land,102-106 Harvard,Boston,MA,02124,250000,,,Dorchester,,5975,,14,,,Active,,,http://www.redfin.com/MA/Boston/100-102A-Harvard-St-02124/home/171387125,MLS PIN,72646188,N,Y,42.2967396,-71.0780132
MLS Listing,,Condo/Co-op,11 Blake #2,Boston,MA,02136,475000,2,2.0,Hyde Park,1230,8610,1910,14,386,200,Active,,,http://www.redfin.com/MA/Hyde-Park/11-Blake-St-02136/unit-2/home/171387107,MLS PIN,72646185,N,Y,42.264212,-71.106508
MLS Listing,,Single Family Residential,37 Monument Sq,Boston,MA,02129,2300000,5,3.0,Charlestown,3356,3356,1875,14,685,550,Active,,,http://www.redfin.com/MA/Boston/37-Monument-Sq-02129/home/9062672,MLS PIN,72646172,N,Y,42.375821,-71.061923
MLS Listing,,Vacant Land,101A Morris St,Boston,MA,02128,640000,,,East Boston,,1500,,14,,,Active,,,http://www.redfin.com/MA/Boston/101-Morris-St-02128/home/9118468,MLS PIN,72646139,N,Y,42.3769056,-71.0313305
MLS Listing,,Condo/Co-op,3 Roslin #3,Boston,MA,02124,569999,3,2.0,Dorchester's Ashmont,1032,,1890,14,552,176,Active,,,http://www.redfin.com/MA/Boston/3-Roslin-St-02124/unit-3/home/146003230,MLS PIN,72646107,N,Y,42.286167,-71.0707388
MLS Listing,,Condo/Co-op,110 Broad St Ph 2,Boston,MA,02110,6950000,3,3.5,Waterfront,3736,,2018,14,1860,2867,Active,,,http://www.redfin.com/MA/Boston/110-Broad-St-02110/unit-2/home/145268507,MLS PIN,72646103,N,Y,42.3573892,-71.0520518
MLS Listing,,Condo/Co-op,151 Tremont St Unit 25D,Boston,MA,02111,1095000,2,2.0,Midtown,1080,,1968,14,1014,716,Active,,,http://www.redfin.com/MA/Boston/151-Tremont-St-02111/unit-25D/home/9280121,MLS PIN,72646095,N,Y,42.3544996,-71.0633802
MLS Listing,,Multi-Family (2-4 Unit),236 Neponset Ave,Boston,MA,02122,899000,3,3.0,Dorchester's Neponset,2280,4297,1935,14,394,,Active,,,http://www.redfin.com/MA/Dorchester/236-Neponset-Ave-02122/home/9099362,MLS PIN,72646087,N,Y,42.2910991,-71.0489178
MLS Listing,,Townhouse,37 Monument Sq #2,Boston,MA,02129,2300000,5,3.0,Charlestown,3356,,1875,15,685,550,Active,,,http://www.redfin.com/MA/Boston/37-Monument-Sq-02129/unit-2/home/12548595,MLS PIN,72645939,N,Y,42.375821,-71.061923
MLS Listing,,Condo/Co-op,304 Neponset Ave #1,Boston,MA,02122,609900,2,2.0,Dorchester's Neponset,809,,2016,15,754,258,Active,,,http://www.redfin.com/MA/Dorchester/304-Neponset-Ave-02122/unit-1/home/143849544,MLS PIN,72645930,N,Y,42.2888731,-71.0472
MLS Listing,,Condo/Co-op,12 Hesston St Unit 1st Floor,Boston,MA,02125,469900,3,1.0,Dorchester,943,,1905,15,498,250,Active,,,http://www.redfin.com/MA/Boston/12-Hesston-Ter-02125/unit-1/home/11833987,MLS PIN,72645925,N,Y,42.3135719,-71.0604753
MLS Listing,,Multi-Family (5+ Unit),173 Magnolia St,Boston,MA,02125,1250000,20,18.0,Dorchester,9065,7906,1910,15,138,,Active,,,http://www.redfin.com/MA/Boston/173-Magnolia-St-02125/home/9070153,MLS PIN,72645913,N,Y,42.3129224,-71.0729208
MLS Listing,,Single Family Residential,129 W Newton St,Boston,MA,02118,4395000,3,3.5,South End,3476,1224,1875,15,1264,,Active,,,http://www.redfin.com/MA/Boston/129-W-Newton-St-02118/home/21718991,MLS PIN,72645864,N,Y,42.3420902,-71.0770201
MLS Listing,,Condo/Co-op,39 South St #1,Boston,MA,02135,600000,1,1.0,Boston,700,,1930,15,857,437,Active,,,http://www.redfin.com/MA/Boston/39-South-St-02135/unit-1/home/9037289,MLS PIN,72645779,N,Y,42.3399947,-71.1576804
MLS Listing,,Multi-Family (5+ Unit),34 Cummins Hwy,Boston,MA,02131,6100000,20,18.0,Roslindale,12415,9182,2020,15,491,,Active,,,http://www.redfin.com/MA/Boston/34-Cummins-Hwy-02131/home/171386347,MLS PIN,72645776,N,Y,42.2858251,-71.1267731
MLS Listing,,Condo/Co-op,50 Battery St #201,Boston,MA,02109,1495000,1,1.5,Waterfront,1038,1038,1992,15,1440,905,Active,,,http://www.redfin.com/MA/Boston/50-Battery-St-02109/unit-201/home/9230789,MLS PIN,72645763,N,Y,42.3662697,-71.0496096
MLS Listing,,Condo/Co-op,37 Farragut Rd #6,Boston,MA,02127,1449000,3,2.0,South Boston,1575,6300,2020,15,920,450,Active,,,http://www.redfin.com/MA/Boston/37-Farragut-Rd-02127/unit-6/home/171379371,MLS PIN,72645748,N,Y,42.3370169,-71.025401
MLS Listing,,Single Family Residential,45 Franclaire Dr,Boston,MA,02132,719000,4,1.5,West Roxbury,1959,4114,1965,15,367,,Active,,,http://www.redfin.com/MA/West-Roxbury/45-Franclaire-Dr-02132/home/9214737,MLS PIN,72645666,N,Y,42.2746606,-71.1487739
MLS Listing,,Condo/Co-op,242 Beacon St #2,Boston,MA,02116,595000,1,1.0,Back Bay,535,,1884,15,1112,315,Active,,,http://www.redfin.com/MA/Boston/242-Beacon-St-02116/unit-2/home/9248056,MLS PIN,72645658,N,Y,42.3538151,-71.0796397
MLS Listing,,Condo/Co-op,17 Chestnut Ave #1,Boston,MA,02130,650000,2,2.0,Jamaica Plain,1250,,1920,15,520,200,Active,,,http://www.redfin.com/MA/Jamaica-Plain/17-Chestnut-Ave-02130/unit-1/home/171378420,MLS PIN,72645613,N,Y,42.3218431,-71.1023539
MLS Listing,,Condo/Co-op,57 Broadlawn Park Unit 11A,Boston,MA,02132,324900,1,1.0,West Roxbury's Chestnut Hill,772,,1964,16,421,433,Active,,,http://www.redfin.com/MA/WEST-ROXBURY/57-BROADLAWN-PARK-02132/unit-11A/home/9205720,MLS PIN,72645606,N,Y,42.2791,-71.1575
MLS Listing,,Condo/Co-op,9 W Broadway #524,Boston,MA,02127,1029000,2,2.0,South Boston,1248,1248,1906,16,825,818,Active,,,http://www.redfin.com/MA/Boston/9-W-Broadway-02127/unit-524/home/9318269,MLS PIN,72645595,N,Y,42.3423405,-71.0578677
MLS Listing,,Condo/Co-op,6 Selkirk Rd #1,Boston,MA,02135,659000,4,1.0,Brighton's Cleveland Circle,1325,,1900,16,497,300,Active,,,http://www.redfin.com/MA/Boston/6-Selkirk-Rd-02135/unit-1/home/9004812,MLS PIN,72645500,N,Y,42.3393184,-71.1474799
MLS Listing,,Condo/Co-op,100 Linden St #1,Boston,MA,02134,419000,2,1.0,Allston,620,620,1920,17,676,266,Active,May-9-2020 12:00 PM,May-9-2020 12:45 PM,http://www.redfin.com/MA/Boston/100-Linden-St-02134/unit-1/home/8994773,MLS PIN,72645460,N,Y,42.3513473,-71.1298556
MLS Listing,,Condo/Co-op,32 Traveler St #503,Boston,MA,02118,1095000,1,1.5,South End,878,,2015,17,1247,792,Active,,,http://www.redfin.com/MA/Boston/32-Traveler-St-02118/unit-503/home/114036914,MLS PIN,72645336,N,Y,42.3446088,-71.0638983
MLS Listing,,Condo/Co-op,624 Hyde Park Ave Unit C-4,Boston,MA,02131,189900,1,1.0,Roslindale,620,,1963,18,306,425,Active,,,http://www.redfin.com/MA/Boston/624-Hyde-Park-Ave-02131/unit-C4/home/9167492,MLS PIN,72645179,N,Y,42.279071,-71.1187155
MLS Listing,,Single Family Residential,41 Reynolds Ave,Everett,MA,02149,589000,4,1.5,Everett,1750,5304,1914,18,337,,Active,,,http://www.redfin.com/MA/Everett/41-Reynolds-Ave-02149/home/11379933,MLS PIN,72645101,N,Y,42.4035561,-71.039562
MLS Listing,,Condo/Co-op,173 Train St #1,Boston,MA,02122,529000,2,1.0,Dorchester's Neponset,1107,,1900,18,478,150,Active,,,http://www.redfin.com/MA/Boston/173-Train-St-02122/unit-1/home/145285992,MLS PIN,72645088,N,Y,42.289949,-71.0529114
MLS Listing,,Condo/Co-op,3531 Washington St #326,Boston,MA,02130,899900,3,2.0,Jamaica Plain,1383,,2020,18,651,780,Active,,,http://www.redfin.com/MA/Boston/3531-Washington-St-02130/unit-326/home/167119857,MLS PIN,72645056,N,Y,42.3046968,-71.1092783
MLS Listing,,Condo/Co-op,145 W Concord St #1,Boston,MA,02118,1995000,2,2.5,South End,1717,,1899,18,1162,308,Active,,,http://www.redfin.com/MA/Boston/145-W-Concord-St-02118/unit-1/home/171365829,MLS PIN,72644992,N,Y,42.339951,-71.0770613
MLS Listing,,Condo/Co-op,52 Lithgow St #1,Boston,MA,02124,580000,3,2.0,Dorchester's Ashmont,1198,,1905,18,484,250,Active,,,http://www.redfin.com/MA/Dorchester-Center/52-Lithgow-St-02124/unit-1/home/171365657,MLS PIN,72644948,N,Y,42.2904854,-71.0686032
MLS Listing,,Single Family Residential,75 Cresthill Rd,Boston,MA,02135,629000,2,1.0,Brighton,1017,4163,1952,18,618,,Active,,,http://www.redfin.com/MA/Brighton/75-Cresthill-Rd-02135/home/11503777,MLS PIN,72644889,N,Y,42.3559062,-71.1578832
MLS Listing,,Single Family Residential,11 Gannett St,Boston,MA,02121,680000,5,3.0,Roxbury,2795,3690,1900,19,243,,Active,,,http://www.redfin.com/MA/Boston/11-Gannett-St-02121/home/9085024,MLS PIN,72644879,N,Y,42.3141092,-71.0818345
MLS Listing,,Condo/Co-op,60 Pierce Ave #2,Boston,MA,02122,669000,3,2.0,Dorchester,1955,5572,1900,19,342,250,Active,,,http://www.redfin.com/MA/Boston/60-Pierce-Ave-02122/unit-2/home/12431603,MLS PIN,72644838,N,Y,42.2877479,-71.051705
MLS Listing,,Condo/Co-op,1607 Commonwealth Ave #6,Boston,MA,02135,375000,1,1.0,Brighton,556,,1910,19,674,353,Active,,,http://www.redfin.com/MA/Boston/1607-Commonwealth-Ave-02135/unit-6/home/9017919,MLS PIN,72644811,N,Y,42.3438579,-71.1435171
MLS Listing,,Multi-Family (2-4 Unit),39 M St,Boston,MA,02127,1299000,4,3.0,South Boston,2670,2400,1900,19,487,,Active,,,http://www.redfin.com/MA/Boston/39-M-St-02127/home/9197895,MLS PIN,72644805,N,Y,42.3368369,-71.0335148
MLS Listing,,Multi-Family (2-4 Unit),110 Gladstone St,Boston,MA,02128,924900,5,3.0,East Boston,2744,2556,1915,19,337,,Active,,,http://www.redfin.com/MA/Boston/110-Gladstone-St-02128/home/9107058,MLS PIN,72644697,N,Y,42.3891393,-71.0047968
MLS Listing,,Condo/Co-op,67 Spring Park #3,Boston,MA,02130,799000,4,2.0,Jamaica Plain,2589,5100,1910,19,309,396,Active,,,http://www.redfin.com/MA/Jamaica-Plain/67-Spring-Park-Ave-02130/unit-3/home/169202574,MLS PIN,72644670,N,Y,42.3163219,-71.1087602
MLS Listing,,Condo/Co-op,24 Worcester Sq #2,Boston,MA,02118,729000,2,1.0,South End,823,,1910,19,886,195,Active,,,http://www.redfin.com/MA/Boston/24-Worcester-Sq-02118/unit-2/home/9285132,MLS PIN,72644557,N,Y,42.3366863,-71.0742382
MLS Listing,,Condo/Co-op,52 Cooper St #9,Boston,MA,02113,825000,2,1.0,North End,726,,1910,19,1136,341,Active,,,http://www.redfin.com/MA/Boston/52-Cooper-St-02113/unit-9/home/12168879,MLS PIN,72644539,N,Y,42.3643361,-71.0577158
MLS Listing,,Single Family Residential,47 Boardman St,Boston,MA,02128,560000,4,2.0,East Boston's Orient Heights,1450,2475,1950,19,386,,Active,,,http://www.redfin.com/MA/Boston/47-Boardman-St-02128/home/9114572,MLS PIN,72644503,N,Y,42.388545,-71.009556
MLS Listing,,Condo/Co-op,26 Commonwealth Ter Unit 12AA,Boston,MA,02135,375000,1,1.0,Brighton,470,,1910,19,798,363,Active,,,http://www.redfin.com/MA/Boston/26-Commonwealth-Ter-02135/unit-12AA/home/138416470,MLS PIN,72644485,N,Y,42.346754,-71.140353
MLS Listing,,Single Family Residential,21 Taylor St #21,Winthrop,MA,02152,590000,3,2.0,Winthrop,1766,4774,1900,20,334,,Active,,,http://www.redfin.com/MA/Winthrop/21-Taylor-St-02152/unit-21/home/171355620,MLS PIN,72644453,N,Y,42.3826404,-70.9814513
MLS Listing,,Single Family Residential,195 Spring St,Boston,MA,02132,559000,2,3.0,West Roxbury,1217,3183,1925,20,459,,Active,,,http://www.redfin.com/MA/West-Roxbury/195-Spring-St-02132/home/9216891,MLS PIN,72644448,N,Y,42.2751984,-71.1683615
MLS Listing,,Multi-Family (2-4 Unit),29 Catherine St,Boston,MA,02131,649900,5,4.0,Roslindale,2666,5000,1910,20,244,,Active,,,http://www.redfin.com/MA/Roslindale/29-Catherine-St-02131/home/9225834,MLS PIN,72644424,N,Y,42.2887773,-71.1146093
MLS Listing,,Condo/Co-op,45 Lewis St #115,Boston,MA,02128,952100,2,2.0,East Boston,1074,,2020,20,886,761,Active,,,http://www.redfin.com/MA/Boston/45-Lewis-St-02128/unit-115/home/171354117,MLS PIN,72644400,N,Y,42.367359,-71.0418243
MLS Listing,,Condo/Co-op,4 Goodwin Pl #1,Boston,MA,02114,825000,2,1.0,Beacon Hill,945,776,1899,20,873,251,Active,,,http://www.redfin.com/MA/Boston/4-Goodwin-Pl-02114/unit-1/home/11838623,MLS PIN,72644384,N,Y,42.3598669,-71.0691873
MLS Listing,,Condo/Co-op,125 Stoughton St #1,Boston,MA,02125,799000,2,2.5,Boston,1670,,2017,20,478,323,Active,,,http://www.redfin.com/MA/Dorchester/125-Stoughton-St-02125/unit-1/home/114082313,MLS PIN,72644377,N,Y,42.3150402,-71.0611749
MLS Listing,,Multi-Family (2-4 Unit),661-R E 7Th St,Boston,MA,02127,1225000,5,2.0,South Boston,1764,2227,1890,20,694,,Active,,,http://www.redfin.com/MA/Boston/661-E-7th-St-02127/unit-R/home/9192654,MLS PIN,72644310,N,Y,42.331959,-71.03385
MLS Listing,,Condo/Co-op,300 Commercial St #512,Boston,MA,02109,599900,1,1.0,Waterfront,577,577,1900,20,1040,574,Active,,,http://www.redfin.com/MA/Boston/300-Commercial-St-02109/unit-512/home/9231583,MLS PIN,72644303,N,Y,42.3651152,-71.0514577
MLS Listing,,Condo/Co-op,372 Bunker Hill St #1,Boston,MA,02129,389000,1,1.0,Boston,520,,1890,20,748,102,Active,,,http://www.redfin.com/MA/Boston/372-Bunker-Hill-St-02129/unit-1/home/11504331,MLS PIN,72644286,N,Y,42.3818297,-71.0687846
MLS Listing,,Condo/Co-op,281 Beacon St #17,Boston,MA,02116,565000,1,1.0,Back Bay,541,,1899,20,1044,299,Active,,,http://www.redfin.com/MA/Boston/281-Beacon-St-02116/unit-17/home/9248679,MLS PIN,72644164,N,Y,42.3530596,-71.0802507
MLS Listing,,Condo/Co-op,1973 Dorchester Ave #5012,Boston,MA,02124,410000,1,1.0,Dorchester's Ashmont,700,,2018,20,586,357,Active,,,http://www.redfin.com/MA/Boston/1973-Dorchester-Ave-02124/unit-5012/home/171344172,MLS PIN,72644135,N,Y,42.2833296,-71.0650934
MLS Listing,,Condo/Co-op,234 Causeway St #814,Boston,MA,02114,920000,1,1.0,Boston,1121,1121,1899,20,821,922,Active,,,http://www.redfin.com/MA/Boston/234-Causeway-St-02114/unit-814/home/9320512,MLS PIN,72644097,N,Y,42.3667651,-71.0594153
MLS Listing,,Vacant Land,30 Thorn St,Boston,MA,02136,3000000,,,Boston,,11000,,20,,,Active,,,http://www.redfin.com/MA/Boston/30-Thorn-St-02136/home/9163428,MLS PIN,72644057,N,Y,42.264285,-71.103459
MLS Listing,,Condo/Co-op,271 Dartmouth St Unit 5C,Boston,MA,02116,735000,1,1.0,Back Bay,625,,1885,20,1176,382,Active,,,http://www.redfin.com/MA/Boston/271-Dartmouth-St-02116/unit-5C/home/69119087,MLS PIN,72644033,N,Y,42.3506554,-71.0773882
MLS Listing,,Condo/Co-op,48 Coffey St Unit 9A,Boston,MA,02122,415000,2,1.0,Dorchester's Neponset,920,920,1968,20,451,346,Active,,,http://www.redfin.com/MA/Dorchester/48-Coffey-St-02122/unit-9A/home/16880424,MLS PIN,72644007,N,Y,42.2892715,-71.0489875
MLS Listing,,Multi-Family (2-4 Unit),11 Dyer St,Boston,MA,02124,900000,9,3.0,Dorchester,4029,3488,1920,20,223,,Active,,,http://www.redfin.com/MA/Boston/11-Dyer-St-02124/home/9086569,MLS PIN,72642824,N,Y,42.2831504,-71.0800704
MLS Listing,,Townhouse,16 Hancock St Unit 3F,Boston,MA,02114,550000,1,1.0,Boston,430,430,1880,20,1279,290,Active,,,http://www.redfin.com/MA/Boston/16-Hancock-St-02114/unit-3F/home/9276455,MLS PIN,72643191,N,Y,42.3605453,-71.0643319
MLS Listing,,Single Family Residential,437 W 4Th St,Boston,MA,02127,2295000,4,3.5,South Boston,3120,1587,1890,20,736,,Active,,,http://www.redfin.com/MA/Boston/437-W-Fourth-St-02127/home/9190437,MLS PIN,72643705,N,Y,42.3354808,-71.0478384
MLS Listing,,Condo/Co-op,300 Pier 4 Blvd Unit PHN,Boston,MA,02210,6765000,3,3.5,Seaport District,2506,,2019,21,2700,3852,Active,,,http://www.redfin.com/MA/Boston/300-Four-Blvd-02210/unit-PHN/home/168980084,MLS PIN,72643968,N,Y,42.3524059,-71.0425799
MLS Listing,,Condo/Co-op,62 Beacon St #1,Chelsea,MA,02150,379900,2,1.0,Chelsea,970,,1900,21,392,170,Active,,,http://www.redfin.com/MA/Chelsea/62-Beacon-St-02150/unit-1/home/9003539,MLS PIN,72643965,N,Y,42.3888644,-71.0424679
MLS Listing,,Condo/Co-op,300 Pier 4 Blvd Unit 2A,Boston,MA,02210,2696000,2,2.5,Seaport District,1348,,2019,21,2000,2596,Active,,,http://www.redfin.com/MA/Boston/300-Four-Blvd-02210/unit-2A/home/146009940,MLS PIN,72643964,N,Y,42.3524059,-71.0425799
MLS Listing,,Condo/Co-op,300 Pier 4 Blvd Unit 3D,Boston,MA,02210,4695000,3,2.5,Seaport District,1959,,2019,21,2397,3535,Active,,,http://www.redfin.com/MA/Boston/300-Four-Blvd-02210/unit-3D/home/166756108,MLS PIN,72643962,N,Y,42.3521689,-71.0431394
MLS Listing,,Multi-Family (2-4 Unit),19 Perrin St,Boston,MA,02119,1800000,16,4.0,Roxbury,4144,6157,1930,21,434,,Active,,,http://www.redfin.com/MA/Boston/19-Perrin-St-02119/home/11837260,MLS PIN,72643779,N,Y,42.3227463,-71.0783395
MLS Listing,,Condo/Co-op,409 W FIRST #1,Boston,MA,02127,2199000,3,2.5,South Boston,2534,,2020,21,868,440,Active,,,http://www.redfin.com/MA/Boston/409-W-First-St-02127/unit-1/home/171324442,MLS PIN,72643639,N,Y,42.3374094,-71.0438415
MLS Listing,,Single Family Residential,118 Eutaw St,Boston,MA,02128,479900,3,1.0,East Boston,1243,1230,1900,22,386,,Active,,,http://www.redfin.com/MA/Boston/118-Eutaw-St-02128/home/9121165,MLS PIN,72643587,N,Y,42.3803188,-71.0351258
MLS Listing,,Condo/Co-op,89 Princeton St #2,Boston,MA,02128,575000,2,2.0,East Boston,841,,1890,22,684,163,Active,,,http://www.redfin.com/MA/Boston/89-Princeton-St-02128/unit-2/home/171319981,MLS PIN,72643563,N,Y,42.3773365,-71.0360224
MLS Listing,,Condo/Co-op,409 W FIRST #8,Boston,MA,02127,3099000,3,3.5,South Boston,4230,,2020,22,733,735,Active,,,http://www.redfin.com/MA/Boston/409-W-First-St-02127/unit-8/home/171315326,MLS PIN,72643444,N,Y,42.3374094,-71.0438415
MLS Listing,,Vacant Land,6-8 Annabel St,Boston,MA,02125,749000,,,Boston,,3500,,22,,,Active,,,http://www.redfin.com/MA/Boston/6-Annabel-St-02125/home/167648196,MLS PIN,72643417,N,Y,42.318556,-71.06296
MLS Listing,,Condo/Co-op,213 Trenton St #2,Boston,MA,02128,549000,2,2.5,Boston,950,,1910,23,578,,Active,,,http://www.redfin.com/MA/Boston/213-Trenton-St-02128/unit-2/home/160369640,MLS PIN,72643199,N,Y,42.3807209,-71.031065
MLS Listing,,Condo/Co-op,21 Beacon St Unit 3K,Boston,MA,02108,435000,0,1.0,Boston,262,,1899,24,1660,218,Active,,,http://www.redfin.com/MA/Boston/21-Beacon-St-02108/unit-3K/home/9276735,MLS PIN,72643123,N,Y,42.358197,-71.062431
MLS Listing,,Condo/Co-op,802 Tremont St #2,Boston,MA,02118,675000,2,1.0,South End,626,,1920,24,1078,144,Active,,,http://www.redfin.com/MA/Boston/802-Tremont-St-02118/unit-2/home/9299109,MLS PIN,72643121,N,Y,42.3384534,-71.081311
MLS Listing,,Townhouse,12 Dartmouth Pl #1,Boston,MA,02116,999999,1,1.0,South End,930,930,1860,24,1075,360,Active,,,http://www.redfin.com/MA/Boston/12-Dartmouth-Pl-02116/unit-1/home/9242661,MLS PIN,72643052,N,Y,42.3449696,-71.0735365
MLS Listing,,Multi-Family (2-4 Unit),852-854 Huntington Ave,Boston,MA,02115,2350000,12,3.5,Mission Hill,3807,2769,1900,24,617,,Active,,,http://www.redfin.com/MA/Boston/852-Huntington-Ave-02115/home/9265449,MLS PIN,72643047,N,Y,42.3327556,-71.1103224
MLS Listing,,Multi-Family (2-4 Unit),36-38 Reservoir Ave,Revere,MA,02151,899999,8,3.0,Revere,5188,6250,1920,24,173,,Active,,,http://www.redfin.com/MA/Revere/36-Reservoir-Ave-02151/home/9035377,MLS PIN,72643019,N,Y,42.4081724,-71.015302
MLS Listing,,Single Family Residential,89 Searle Rd,Boston,MA,02132,825999,3,2.5,West Roxbury,1560,7120,1920,25,529,,Active,,,http://www.redfin.com/MA/West-Roxbury/89-Searle-Rd-02132/home/9214917,MLS PIN,72642970,N,Y,42.2728373,-71.1494237
MLS Listing,,Single Family Residential,230 River Rd,Winthrop,MA,02152,524900,4,1.5,Winthrop,1677,3870,1910,25,313,,Active,,,http://www.redfin.com/MA/Winthrop/230-River-Rd-02152/home/11514411,MLS PIN,72642953,N,Y,42.373869,-70.9758906
MLS Listing,,Multi-Family (2-4 Unit),60 Stanton St,Boston,MA,02124,900000,8,3.0,Dorchester's Codman Square,3250,5783,1925,25,277,,Active,,,http://www.redfin.com/MA/Boston/60-Stanton-St-02124/home/9080083,MLS PIN,72642847,N,Y,42.2835977,-71.0787705
MLS Listing,,Single Family Residential,3 Hilary St,Boston,MA,02129,1995000,3,3.5,Charlestown,2337,1414,1875,25,854,,Active,,,http://www.redfin.com/MA/Charlestown/3-Hilary-St-02129/home/9062247,MLS PIN,72642803,N,Y,42.3769321,-71.0620591
MLS Listing,,Townhouse,590 Shirley St #2,Winthrop,MA,02152,999500,3,3.5,Winthrop,2114,3500,2020,25,473,397,Active,,,http://www.redfin.com/MA/Winthrop/590-Shirley-St-02152/unit-2/home/171304472,MLS PIN,72642764,N,Y,42.3698356,-70.9708173
MLS Listing,,Condo/Co-op,14 Miles St #14,Boston,MA,02119,550000,3,1.0,Jamaica Plain,1164,9999,1915,25,473,150,Active,,,http://www.redfin.com/MA/Boston/14-Miles-St-02119/unit-14/home/62559500,MLS PIN,72642729,N,Y,42.3185633,-71.0998935
MLS Listing,,Townhouse,43 Commercial Wharf #2,Boston,MA,02110,1599000,2,1.5,Boston,1366,1366,1875,26,1171,834,Active,,,http://www.redfin.com/MA/Boston/43-Commercial-Wharf-02110/unit-2/home/12388779,MLS PIN,72642648,N,Y,42.361872,-71.050586
MLS Listing,,Condo/Co-op,42 W Newton St Unit 1-8,Boston,MA,02118,699000,1,1.0,South End,601,601,1910,26,1163,259,Active,,,http://www.redfin.com/MA/Boston/42-W-Newton-St-02118/unit-1-8/home/9286378,MLS PIN,72642606,N,Y,42.3392239,-71.0743973
MLS Listing,,Condo/Co-op,100 Jamaica St #2,Boston,MA,02130,699000,3,2.0,Jamaica Plain,1200,,1890,26,583,270,Active,,,http://www.redfin.com/MA/Jamaica-Plain/100-Jamaica-St-02130/unit-2/home/171300184,MLS PIN,72642566,N,Y,42.3055392,-71.1164081
MLS Listing,,Condo/Co-op,3531 Washington #327,Boston,MA,02130,988000,3,2.0,Jamaica Plain,1388,,2020,26,712,778,Active,,,http://www.redfin.com/MA/Boston/3531-Washington-St-02130/unit-327/home/171299967,MLS PIN,72642546,N,Y,42.3051613,-71.1090694
MLS Listing,,Condo/Co-op,49 - 51 Dustin #1,Boston,MA,02135,899000,3,2.0,Brighton,1371,,2020,26,656,192,Active,,,http://www.redfin.com/MA/Boston/49-Dustin-St-02135/unit-1/home/171299966,MLS PIN,72642545,N,Y,42.3522442,-71.1453957
MLS Listing,,Condo/Co-op,3 Avery St #401,Boston,MA,02111,770000,2,2.0,Midtown,1509,1509,2004,26,510,2283,Active,,,http://www.redfin.com/MA/Boston/3-Avery-St-02111/unit-401/home/21718679,MLS PIN,72642481,N,Y,42.353596,-71.0628695
MLS Listing,,Condo/Co-op,43 Commercial Wharf #6,Boston,MA,02110,1549000,2,2.0,Waterfront,1329,1329,1900,26,1166,935,Active,,,http://www.redfin.com/MA/Boston/43-Commercial-Wharf-02110/unit-6/home/9259439,MLS PIN,72642458,N,Y,42.361872,-71.050586
MLS Listing,,Single Family Residential,170 Spencer Ave,Chelsea,MA,02150,409000,3,1.0,Chelsea,1063,3334,1893,26,385,,Active,,,http://www.redfin.com/MA/Chelsea/170-Spencer-Ave-02150/home/9014532,MLS PIN,72642432,N,Y,42.3988249,-71.0223713
MLS Listing,,Townhouse,53 Sedgwick St Unit B,Boston,MA,02130,899000,3,2.5,Jamaica Plain,2054,,1890,26,438,,Active,,,http://www.redfin.com/MA/Boston/53-Sedgwick-St-02130/unit-B/home/105480409,MLS PIN,72642422,N,Y,42.3083009,-71.1134296
MLS Listing,,Townhouse,583 Baker St #583,Boston,MA,02132,799000,2,2.5,West Roxbury,1600,,2019,26,499,295,Active,,,http://www.redfin.com/MA/Boston/583-Baker-St-02132/unit-583/home/170164401,MLS PIN,72642416,N,Y,42.2889674,-71.1721089
MLS Listing,,Condo/Co-op,259 Beacon St #51,Boston,MA,02116,899000,2,1.0,Back Bay,854,,1889,26,1053,525,Active,,,http://www.redfin.com/MA/Boston/259-Beacon-St-02116/unit-51/home/9248968,MLS PIN,72642376,N,Y,42.3532936,-71.0793855
MLS Listing,,Multi-Family (2-4 Unit),318 PARK Ave,Revere,MA,02151,850000,6,3.0,Revere,3539,3200,1882,26,240,,Active,,,http://www.redfin.com/MA/Revere/318-Park-Ave-02151/home/9037907,MLS PIN,72642343,N,Y,42.412157,-71.021086
MLS Listing,,Condo/Co-op,21 Father Francis Gilday St #507,Boston,MA,02118,809900,1,1.5,South End,1138,1138,2006,26,712,827,Active,,,http://www.redfin.com/MA/Boston/21-Father-Francis-Gilday-St-02118/unit-507/home/17393087,MLS PIN,72642338,N,Y,42.3371558,-71.0732041
MLS Listing,,Single Family Residential,43 Withington St,Boston,MA,02124,1200000,3,1.5,Boston,2013,10000,1897,26,596,,Active,,,http://www.redfin.com/MA/Boston/43-Withington-St-02124/home/9076085,MLS PIN,72642326,N,Y,42.2880712,-71.0729672
MLS Listing,,Condo/Co-op,100 Shawmut Ave #403,Boston,MA,02118,1266900,1,1.0,South End,945,,2021,26,1341,833,Active,,,http://www.redfin.com/MA/Boston/100-Shawmut-Ave-02118/unit-403/home/171298681,MLS PIN,72642317,N,Y,42.3466841,-71.0656551
MLS Listing,,Multi-Family (2-4 Unit),145 Washington Ave,Winthrop,MA,02152,994900,8,4.0,Winthrop,3872,6900,1925,26,257,,Active,,,http://www.redfin.com/MA/Winthrop/145-Washington-Ave-02152/home/11513060,MLS PIN,72640857,N,Y,42.3717697,-70.9756003
MLS Listing,,Condo/Co-op,510 Revere Beach Blvd #801,Revere,MA,02151,399000,2,2.0,Revere Beach,1110,,1983,26,359,715,Active,,,http://www.redfin.com/MA/Revere/510-Revere-Beach-Blvd-02151/unit-801/home/9021366,MLS PIN,72638871,N,Y,42.429515,-70.9787002
MLS Listing,,Condo/Co-op,79 Bolton St #79,Boston,MA,02127,729900,2,1.5,South Boston,1008,1008,1988,27,724,271,Active,,,http://www.redfin.com/MA/Boston/79A-Bolton-St-02127/unit-79/home/113234677,MLS PIN,72642257,N,Y,42.3414361,-71.0522436
MLS Listing,,Single Family Residential,73 Nelson St,Boston,MA,02124,469000,2,1.5,Boston,1331,1150,1875,27,352,,Active,,,http://www.redfin.com/MA/Boston/73-Nelson-St-02124/home/9088738,MLS PIN,72642184,N,Y,42.2810117,-71.0820783
MLS Listing,,Condo/Co-op,75 Burbank St #301,Boston,MA,02115,495000,1,1.0,The Fenway,425,,1899,27,1165,272,Active,,,http://www.redfin.com/MA/Boston/75-Burbank-St-02115/unit-301/home/12439435,MLS PIN,72642183,N,Y,42.3446881,-71.0891368
MLS Listing,,Single Family Residential,5 Sherman St,Boston,MA,02119,779000,4,2.5,Roxbury,2556,2671,1905,27,305,,Active,,,http://www.redfin.com/MA/Boston/5-Sherman-St-02119/home/11837275,MLS PIN,72642161,N,Y,42.3213812,-71.083088
MLS Listing,,Condo/Co-op,1100 Governors Dr #11,Winthrop,MA,02152,290000,2,1.0,Winthrop,989,,1971,27,293,470,Active,,,http://www.redfin.com/MA/Winthrop/1100-Governors-Dr-02152/unit-11/home/11517830,MLS PIN,72642154,N,Y,42.3842018,-70.9817941
MLS Listing,,Condo/Co-op,343 Commercial St #304,Boston,MA,02109,2329000,3,2.5,Waterfront,1783,,1840,27,1306,1206,Active,,,http://www.redfin.com/MA/Boston/343-Commercial-St-02109/unit-304/home/9257702,MLS PIN,72641998,N,Y,42.3652522,-71.0498124
MLS Listing,,Single Family Residential,75 Maxwell St,Boston,MA,02124,630000,4,2.5,Dorchester,1800,2517,1910,27,350,,Active,,,http://www.redfin.com/MA/Boston/75-Maxwell-St-02124/home/11834810,MLS PIN,72640828,N,Y,42.2820201,-71.0796551
MLS Listing,,Condo/Co-op,99 Tremont St #410,Boston,MA,02135,945000,2,2.0,Brighton,1115,,2017,28,848,643,Active,,,http://www.redfin.com/MA/Boston/99-Tremont-St-02135/unit-410/home/144183517,MLS PIN,72641895,N,Y,42.351377,-71.1723764
MLS Listing,,Condo/Co-op,150-152 Bayswater St #1,Boston,MA,02128,559000,2,1.0,East Boston's Orient Heights,1200,4205,1920,28,466,220,Active,,,http://www.redfin.com/MA/Boston/150-Bayswater-St-02128/unit-1/home/168735401,MLS PIN,72641880,N,Y,42.3830446,-71.0004235
MLS Listing,,Condo/Co-op,99-105 Broad St Unit 8B,Boston,MA,02110,1495000,2,2.0,Waterfront,1345,,1910,28,1112,989,Active,,,http://www.redfin.com/MA/Boston/99-Broad-St-02110/unit-8B/home/17541250,MLS PIN,72641845,N,Y,42.357323,-71.05262
MLS Listing,,Condo/Co-op,52 River St #2,Boston,MA,02126,555999,2,2.0,Boston,1052,,2019,28,529,275,Active,,,http://www.redfin.com/MA/Mattapan/52-River-St-02126/unit-2/home/171289848,MLS PIN,72641790,N,Y,42.271215,-71.072689
MLS Listing,,Condo/Co-op,559 E 5th #5,Boston,MA,02127,574000,2,1.0,South Boston,602,,2020,28,953,150,Active,,,http://www.redfin.com/MA/Boston/559-E-5th-St-02127/unit-5/home/171289261,MLS PIN,72641760,N,Y,42.3338226,-71.0379155
MLS Listing,,Condo/Co-op,121 Fulton St #5,Boston,MA,02109,775000,2,1.0,Waterfront,830,830,1890,28,934,200,Active,,,http://www.redfin.com/MA/Boston/121-Fulton-St-02109/unit-5/home/9270011,MLS PIN,72641752,N,Y,42.3625252,-71.0527693
MLS Listing,,Condo/Co-op,559 E 5th #4,Boston,MA,02127,799000,2,2.0,South Boston,1204,,2020,28,664,185,Active,,,http://www.redfin.com/MA/Boston/559-E-5th-St-02127/unit-4/home/171288317,MLS PIN,72641751,N,Y,42.3338226,-71.0379155
MLS Listing,,Condo/Co-op,17 Centre St #2,Boston,MA,02119,799999,2,2.0,Roxbury's Fort Hill,1200,,2020,28,667,200,Active,,,http://www.redfin.com/MA/Boston/17-Centre-St-02119/unit-2/home/171288222,MLS PIN,72641744,N,Y,42.3299189,-71.092731
MLS Listing,,Townhouse,143-171 Hyde Park Ave Unit 159 A,Boston,MA,02130,819000,3,2.5,Jamaica Plain,1650,,2017,28,496,408,Active,,,http://www.redfin.com/MA/Boston/143-Hyde-Park-Ave-02130/unit-159A/home/146120653,MLS PIN,72641704,N,Y,42.2967795,-71.1160367
MLS Listing,,Condo/Co-op,5 Main St #5,Boston,MA,02129,965000,3,2.0,Charlestown,1345,,1987,28,717,360,Active,,,http://www.redfin.com/MA/Boston/5-Main-St-02129/unit-5/home/113221907,MLS PIN,72641673,N,Y,42.3723432,-71.0617543
MLS Listing,,Condo/Co-op,340 W 2nd St Unit 24 ph,Boston,MA,02127,1395000,2,2.0,South Boston,1431,,2020,28,975,285,Active,,,http://www.redfin.com/MA/Boston/340-W-2nd-St-02127/unit-24-ph/home/171286729,MLS PIN,72641663,N,Y,42.338786,-71.0467604
MLS Listing,,Townhouse,4 Mercer St #4,Boston,MA,02127,699000,2,2.0,South Boston,1416,,1988,28,494,150,Active,,,http://www.redfin.com/MA/Boston/4-Mercer-St-02127/unit-4/home/113225819,MLS PIN,72641633,N,Y,42.3334795,-71.0488079
MLS Listing,,Multi-Family (2-4 Unit),530-532 E 6th,Boston,MA,02127,1999000,8,3.0,South Boston,3393,2958,1890,28,589,,Active,,,http://www.redfin.com/MA/Boston/530-E-6th-St-02127/home/9193564,MLS PIN,72641617,N,Y,42.333286,-71.0391398
MLS Listing,,Condo/Co-op,160 Commonwealth Ave #521,Boston,MA,02116,767000,1,1.0,Back Bay,701,701,1871,29,1094,902,Active,,,http://www.redfin.com/MA/Boston/160-Commonwealth-Ave-02116/unit-521/home/9265321,MLS PIN,72641531,N,Y,42.3512759,-71.0786479
MLS Listing,,Multi-Family (5+ Unit),20 Manley St,Boston,MA,02122,2800000,12,6.0,Dorchester,5400,4500,1920,29,519,,Active,,,http://www.redfin.com/MA/Dorchester/20-Manley-St-02122/home/9079115,MLS PIN,72641525,N,Y,42.2964654,-71.0544428
MLS Listing,,Condo/Co-op,319 A #207,Boston,MA,02210,625000,1,1.0,Fort Point,565,,2016,29,1106,580,Active,,,http://www.redfin.com/MA/Boston/319-A-St-02210/unit-207/home/145285804,MLS PIN,72641458,N,Y,42.3488069,-71.0494346
MLS Listing,,Condo/Co-op,497 Beacon St #3,Boston,MA,02215,525000,1,1.0,Back Bay,415,,1900,30,1265,171,Active,,,http://www.redfin.com/MA/Boston/497-Beacon-St-02215/unit-3/home/168799868,MLS PIN,72641250,N,Y,42.350526,-71.089747
MLS Listing,,Single Family Residential,22-24 Delmont St,Boston,MA,02122,1295000,4,4.0,Dorchester,4052,7623,2007,30,320,,Active,,,http://www.redfin.com/MA/Boston/22-Delmont-St-02122/home/17544625,MLS PIN,72641244,N,Y,42.2861201,-71.0537651
MLS Listing,,Condo/Co-op,330 1/2 E St #1,Boston,MA,02127,999999,4,2.0,South Boston,1662,,1900,30,602,586,Active,,,http://www.redfin.com/MA/Boston/330-E-St-02127/unit-1/home/11922598,MLS PIN,72641188,N,Y,42.338155,-71.0490501
MLS Listing,,Condo/Co-op,6 Whittier Pl Unit 7L,Boston,MA,02114,430000,0,1.0,West End,542,,1964,31,793,485,Active,,,http://www.redfin.com/MA/Boston/6-Whittier-Pl-02114/unit-7L/home/9228227,MLS PIN,72641119,N,Y,42.3657336,-71.0669497
MLS Listing,,Condo/Co-op,5 Thurston St #2,Boston,MA,02128,689000,5,2.0,East Boston,2228,,1910,32,309,252,Active,,,http://www.redfin.com/MA/Boston/5-Thurston-St-02128/unit-2/home/21717214,MLS PIN,72640902,N,Y,42.385471,-71.0065561
MLS Listing,,Condo/Co-op,1 Avery St Unit 11D,Boston,MA,02111,1150000,2,2.0,Boston,1124,1124,2000,32,1023,1542,Active,,,http://www.redfin.com/MA/Boston/1-Avery-St-02111/unit-11D/home/11837548,MLS PIN,72640877,N,Y,42.3534171,-71.06251
MLS Listing,,Condo/Co-op,1 Nassau St #1501,Boston,MA,02111,899000,2,2.0,Theatre District,1302,,2004,32,690,983,Active,,,http://www.redfin.com/MA/Boston/1-Nassau-St-02111/unit-1501/home/9326187,MLS PIN,72640873,N,Y,42.348524,-71.0629362
MLS Listing,,Single Family Residential,12 Jenkins St,Boston,MA,02127,799999,4,1.0,South Boston,1253,1403,1905,32,638,,Active,,,http://www.redfin.com/MA/Boston/12-Jenkins-St-02127/home/11836368,MLS PIN,72640850,N,Y,42.3307862,-71.0535027
MLS Listing,,Condo/Co-op,27 S Munroe Ter #3,Boston,MA,02122,549999,3,1.0,Dorchester's Neponset,1258,,1925,32,437,300,Active,,,http://www.redfin.com/MA/Boston/27-S-Munroe-Ter-02122/unit-3/home/39913041,MLS PIN,72640802,N,Y,42.2922598,-71.0521997
MLS Listing,,Single Family Residential,71 Robin St,Boston,MA,02132,1579000,5,4.5,Bellevue Hill,3438,8602,1956,32,459,,Active,,,http://www.redfin.com/MA/West-Roxbury/71-Robin-St-02132/home/9221475,MLS PIN,72640772,N,Y,42.2776692,-71.1445963
MLS Listing,,Parking,89 St Botolph St,Boston,MA,02116,250,,,Back Bay,,,,32,,,Active,,,http://www.redfin.com/MA/Boston/89-St-Botolph-St-02116/home/9273431,MLS PIN,72640761,N,Y,42.3453226,-71.0805694
MLS Listing,,Multi-Family (2-4 Unit),101 Washington Ave,Chelsea,MA,02150,669000,6,2.0,Chelsea,2583,5208,1910,33,259,,Active,,,http://www.redfin.com/MA/Chelsea/101-Washington-Ave-02150/home/9011272,MLS PIN,72640583,N,Y,42.3962265,-71.0320192
MLS Listing,,Multi-Family (2-4 Unit),141 PROCTOR Ave,Revere,MA,02151,899723,9,3.0,Revere,3906,5548,1920,33,230,,Active,,,http://www.redfin.com/MA/Revere/141-Proctor-Ave-02151/home/11835006,MLS PIN,72640582,N,Y,42.4140697,-71.0155342
MLS Listing,,Condo/Co-op,54 Appleton St #3,Boston,MA,02118,450000,0,1.0,South End,323,,1850,33,1393,63,Active,,,http://www.redfin.com/MA/Boston/54-Appleton-St-02116/unit-3/home/9262672,MLS PIN,72640514,N,Y,42.3456244,-71.0722341
MLS Listing,,Multi-Family (2-4 Unit),3 Randlett Pl,Boston,MA,02125,725000,6,3.0,Roxbury,2345,2178,1880,33,309,,Active,,,http://www.redfin.com/MA/Boston/3-Randlett-Pl-02125/home/11837234,MLS PIN,72640324,N,Y,42.3179527,-71.0771456
MLS Listing,,Condo/Co-op,74 Fenway #26,Boston,MA,02115,979000,2,1.0,The Fenway,980,980,1920,33,999,553,Active,,,http://www.redfin.com/MA/Boston/74-Fenway-02115/unit-26/home/9265576,MLS PIN,72640275,N,Y,42.3428315,-71.0908989
MLS Listing,,Condo/Co-op,156-168 Terrace St #409,Boston,MA,02120,689900,2,2.0,Mission Hill,1492,,1900,33,462,889,Active,,,http://www.redfin.com/MA/Boston/156-168-Terrace-St-02120/unit-409/home/45407092,MLS PIN,72640261,N,Y,42.3291339,-71.0973695
MLS Listing,,Condo/Co-op,42 Bryon Rd #4,Boston,MA,02132,349900,2,1.0,West Roxbury,780,780,1955,34,449,367,Active,,,http://www.redfin.com/MA/Boston/42-Bryon-Rd-02132/unit-4/home/137990785,MLS PIN,72640107,N,Y,42.2797554,-71.1626756
MLS Listing,,Condo/Co-op,175 Brooks St Unit B,Boston,MA,02128,399000,1,1.0,East Boston,706,,1920,34,565,157,Active,,,http://www.redfin.com/MA/Boston/175-Brooks-St-02128/unit-B/home/171242698,MLS PIN,72640059,N,Y,42.3797866,-71.0356111
MLS Listing,,Condo/Co-op,42 Chauncy St Unit 9A,Boston,MA,02111,1499000,1,2.0,Midtown,2249,,1899,34,667,827,Active,,,http://www.redfin.com/MA/Boston/42-Chauncy-St-02111/unit-9A/home/9312349,MLS PIN,72639288,N,Y,42.3537238,-71.0598052
MLS Listing,,Condo/Co-op,12 Stoneholm St #314,Boston,MA,02115,449000,1,1.0,The Fenway,400,,1976,34,1123,396,Active,,,http://www.redfin.com/MA/Boston/12-Stoneholm-St-02115/unit-314/home/12439622,MLS PIN,72639965,N,Y,42.3458257,-71.0886264
MLS Listing,,Condo/Co-op,735 Harrison Ave Unit W404,Boston,MA,02118,309000,1,1.0,South End,965,965,2006,34,320,513,Active,,,http://www.redfin.com/MA/Boston/735-Harrison-Ave-02118/unit-W404/home/21719051,MLS PIN,72639964,N,Y,42.3380415,-71.0716714
MLS Listing,,Condo/Co-op,8 Whittier Pl Unit 11B,Boston,MA,02114,624900,1,1.0,West End,940,,1964,34,665,792,Active,,,http://www.redfin.com/MA/Boston/8-Whittier-Pl-02114/unit-11B/home/9228807,MLS PIN,72639957,N,Y,42.3654839,-71.06728
MLS Listing,,Condo/Co-op,74 White #301,Boston,MA,02128,999000,3,2.0,East Boston,1590,,1872,34,628,601,Active,,,http://www.redfin.com/MA/Boston/74-76-White-St-02128/unit-301/home/171241151,MLS PIN,72639867,N,Y,42.380786,-71.036807
MLS Listing,,Condo/Co-op,3531 Washington St #518,Boston,MA,02130,599999,1,1.0,Jamaica Plain,848,,2020,34,708,503,Active,,,http://www.redfin.com/MA/Boston/3531-Washington-St-02130/unit-518/home/160713417,MLS PIN,72639808,N,Y,42.3046968,-71.1092783
