SALE TYPE,SOLD DATE,PROPERTY TYPE,ADDRESS,CITY,STATE OR PROVINCE,ZIP OR POSTAL CODE,PRICE,BEDS,BATHS,LOCATION,SQUARE FEET,LOT SIZE,YEAR BUILT,DAYS ON MARKET,$/SQUARE FEET,HOA/MONTH,STATUS,NEXT OPEN HOUSE START TIME,NEXT OPEN HOUSE END TIME,URL (SEE http://www.redfin.com/buy-a-home/comparative-market-analysis FOR INFO ON PRICING),SOURCE,MLS#,FAVORITE,INTERESTED,LATITUDE,LONGITUDE
MLS Listing,,Single Family Residential,2 Reed Dr,Westerly,RI,02891,649900,4,2.5,Weekapaug Heights,3342,20175,2002,1,194,,Active,,,http://www.redfin.com/RI/Westerly/2-Reed-Dr-02891/home/51927060,RIS,1252819,N,Y,41.3428301,-71.7658392
MLS Listing,,Single Family Residential,31 Gould Way,North Kingstown,RI,02874,965000,3,3.5,SAUNDERSTOWN VILLAGE,2939,20202,1900,1,328,,Active,,,http://www.redfin.com/RI/Saunderstown/31-Gould-Way-02874/home/51990848,RIS,1252877,N,Y,41.5070014,-71.4208684
MLS Listing,,Single Family Residential,36 Brigade Dr,North Kingstown,RI,02877,679000,4,3.5,North Kingstown,3120,35050,2019,1,218,8,Active,,,http://www.redfin.com/RI/North-Kingstown/36-Brigade-DR-02877/home/171533912,RIS,1252900,N,Y,41.525094,-71.506527
MLS Listing,,Single Family Residential,24 Washington St,North Kingstown,RI,02852,829000,4,3.0,Wickford Village,2500,3670,1803,1,332,,Active,,,http://www.redfin.com/RI/North-Kingstown/24-Washington-St-02852/home/51994320,RIS,1252887,N,Y,41.5713892,-71.4494861
MLS Listing,,Single Family Residential,75 Spruce Rd,Charlestown,RI,02813,329000,3,1.0,Ocean Ridge,620,4791,1958,1,531,,Active,,,http://www.redfin.com/RI/Charlestown/75-Spruce-Rd-02813/home/51790826,RIS,1252895,N,Y,41.3790789,-71.620309
MLS Listing,,Single Family Residential,245 Greenwood Dr,South Kingstown,RI,02879,359000,3,3.0,South Kingstown,2014,12197,1981,1,178,,Active,,,http://www.redfin.com/RI/South-Kingstown/245-Greenwood-Dr-02879/home/51819827,RIS,1252520,N,Y,41.4639907,-71.517873
MLS Listing,,Single Family Residential,65 Harbour Island Rd,Narragansett,RI,02882,449800,2,1.5,HARBOUR ISLAND,816,6599,1960,1,551,,Active,,,http://www.redfin.com/RI/Narragansett/65-Harbour-Island-Rd-02882/home/51980076,RIS,1252871,N,Y,41.4113787,-71.4977646
MLS Listing,,Single Family Residential,104 Wild Goose Rd,South Kingstown,RI,02879,435000,1,1.0,Green Hill Beach,368,6534,1952,1,1182,,Active,,,http://www.redfin.com/RI/South-Kingstown/104-Wild-Goose-Rd-02879/home/51815313,RIS,1252864,N,Y,41.371373,-71.604722
MLS Listing,,Single Family Residential,393 School St,North Kingstown,RI,02852,249900,2,1.0,Davisville,1038,11761,1910,1,241,,Active,,,http://www.redfin.com/RI/North-Kingstown/393-School-St-02852/home/51988558,RIS,1252856,N,Y,41.6164632,-71.4699508
MLS Listing,,Single Family Residential,84 Shirley Dr,Charlestown,RI,02813,785000,3,2.5,SHADY HARBOR WITH WEEKAPAUG BEACH,2014,9148,1999,2,390,,Active,,,http://www.redfin.com/RI/Charlestown/84-Shirley-Dr-02813/home/51794669,RIS,1252421,N,Y,41.3520401,-71.7188039
MLS Listing,,Single Family Residential,52 Pequot Dr,Charlestown,RI,02813,895000,3,3.0,CHARLESTOWN BEACH,2200,66211,1984,2,407,,Active,,,http://www.redfin.com/RI/Charlestown/52-Pequot-Dr-02813/home/51793783,RIS,1252422,N,Y,41.3709107,-71.6346331
MLS Listing,,Single Family Residential,375 East Beach Rd,Charlestown,RI,02813,645000,2,1.0,QUONNIE EAST BEACH QUONOCHONTAUG,872,11761,1940,2,740,21,Active,,,http://www.redfin.com/RI/Charlestown/375-E-Beach-Rd-02813/home/51793104,RIS,1252822,N,Y,41.3440107,-71.6983979
MLS Listing,,Single Family Residential,21 Yosemite Valley Rd,Westerly,RI,02891,2375000,4,3.0,WATCH HILL,3074,75359,1987,2,773,,Active,,,http://www.redfin.com/RI/Westerly/21-Yosemite-Valley-Rd-02891/home/51925862,RIS,1251134,N,Y,41.3191587,-71.8409426
MLS Listing,,Single Family Residential,7 Oshay Ln,Richmond,RI,02894,379900,3,1.5,Richmond,1734,43124,2000,2,219,,Active,,,http://www.redfin.com/RI/Wood-River-Junction/7-O-Shay-Ln-02894/home/52027716,RIS,1252855,N,Y,41.4444205,-71.6979486
MLS Listing,,Single Family Residential,64 Burnside      Unit 96 Ave,Narragansett,RI,02882,129900,2,1.0,Knowles Camp Scarborough Beach,504,,1950,2,258,458,Active,,,http://www.redfin.com/RI/Narragansett/64-Burnside-Ave-02882/unit-96/home/51978973,RIS,1252845,N,Y,41.3933037,-71.4760806
MLS Listing,,Vacant Land,0 White Oak Dr,Richmond,RI,02898,129000,,,Richmond,,127334,,2,,,Active,,,http://www.redfin.com/RI/Wyoming/White-Oak-Dr-02898/home/170953825,RIS,1252825,N,Y,41.544516,-71.656836
MLS Listing,,Single Family Residential,103 Boom Bridge Rd,Westerly,RI,02891,259900,3,1.0,Boom Bridge,1288,45663,1960,3,202,,Active,,,http://www.redfin.com/RI/Westerly/103-Boombridge-Rd-02891/home/51932055,RIS,1252815,N,Y,41.416069,-71.823033
MLS Listing,,Single Family Residential,4 Forest Ln,Richmond,RI,02812,409900,3,2.0,Richmond,2806,218236,1988,3,146,,Active,,,http://www.redfin.com/RI/Richmond/4-Forrest-Ln-02812/home/52028437,RIS,1252806,N,Y,41.483499,-71.657545
MLS Listing,,Single Family Residential,1275 Ministerial Rd,South Kingstown,RI,02879,460000,3,3.0,South Kingstown,3204,87120,1943,4,144,,Active,,,http://www.redfin.com/RI/South-Kingstown/1275-Ministerial-Rd-02879/home/51824327,RIS,1252773,N,Y,41.4300905,-71.5577208
MLS Listing,,Single Family Residential,34 Maxson Hill Rd,Hopkinton,RI,02804,339900,4,2.0,VIllage of Ashawy & Rt 3,2540,52272,1974,4,134,,Active,,,http://www.redfin.com/RI/Ashaway/34-Maxson-Hill-Rd-02804/home/51830046,RIS,1252768,N,Y,41.430744,-71.7792489
MLS Listing,,Single Family Residential,61 Summer St,Westerly,RI,02891,325000,3,2.0,Westerly,2464,7307,2012,4,132,,Active,,,http://www.redfin.com/RI/Westerly/61-Summer-St-02891/home/51927047,RIS,1252711,N,Y,41.3789086,-71.8225043
MLS Listing,,Single Family Residential,120 Highbank Ave,North Kingstown,RI,02852,325000,2,1.0,Mount View,1249,10600,1935,4,260,,Active,,,http://www.redfin.com/RI/North-Kingstown/120-Highbank-Ave-02852/home/51992589,RIS,1252721,N,Y,41.6371797,-71.4098753
MLS Listing,,Single Family Residential,25 Fox Trot Dr,Charlestown,RI,02813,64500,2,1.0,Indian Cedar,728,,1990,4,89,385,Active,,,http://www.redfin.com/RI/Charlestown/25-Foxtrot-Dr-02813/home/51796148,RIS,1252743,N,Y,41.4218665,-71.6647628
MLS Listing,,Single Family Residential,101 Wilbert Way,North Kingstown,RI,02852,998500,3,2.5,Fletcher Meadows,3300,131607,2019,4,303,61,Active,,,http://www.redfin.com/RI/North-Kingstown/101-Wilbert-Way-02852/home/51995868,RIS,1252715,N,Y,41.6304869,-71.4199423
MLS Listing,,Single Family Residential,84 King Philip Rd,Narragansett,RI,02882,1350000,5,3.0,Bonnet Shores,2951,12044,1945,4,457,,Active,,,http://www.redfin.com/RI/Narragansett/84-King-Philip-Rd-02882/home/51981136,RIS,1252730,N,Y,41.4849129,-71.4211004
MLS Listing,,Single Family Residential,106 Starlight Dr,South Kingstown,RI,02879,245000,2,2.0,VILLAGE AT WORDEN'S POND,1456,12000,2005,4,168,471,Active,,,http://www.redfin.com/RI/South-Kingstown/106-Starlight-Dr-02879/home/51824427,RIS,1252645,N,Y,41.4257149,-71.578502
MLS Listing,,Single Family Residential,112 Longfellow Dr,North Kingstown,RI,02852,449000,4,2.5,"Northbriar, Quidnessett",3082,30000,1968,4,146,,Active,,,http://www.redfin.com/RI/North-Kingstown/112-Longfellow-Dr-02852/home/51994521,RIS,1252659,N,Y,41.6396774,-71.4321258
MLS Listing,,Vacant Land,0 Holly Rd,South Kingstown,RI,02879,149000,,,Green Hill/Ocean Ridge,,4792,,4,,,Active,,,http://www.redfin.com/RI/SOUTH-KINGSTOWN/HOLLY-RD-02879/home/51816801,RIS,1252527,N,Y,41.391726,-71.612491
MLS Listing,,Single Family Residential,135 Winnapaug Rd,Westerly,RI,02891,517500,3,2.5,"Winnapaug, beaches",2542,20473,2001,4,204,,Active,,,http://www.redfin.com/RI/Westerly/135-Winnapaug-Rd-02891/home/51925336,RIS,1252630,N,Y,41.33648,-71.8147673
MLS Listing,,Single Family Residential,17 Edwards Ave,South Kingstown,RI,02879,289000,2,1.0,Narrow River/Middlebridge,844,7405,1935,4,342,,Active,,,http://www.redfin.com/RI/South-Kingstown/17-Edwards-Ave-02879/home/51818771,RIS,1251668,N,Y,41.4678764,-71.4512486
MLS Listing,,Single Family Residential,888 Ten Rod Rd,North Kingstown,RI,02852,329000,2,1.5,Wickford,1200,3060,2018,4,274,,Active,,,http://www.redfin.com/RI/North-Kingstown/888-Ten-Rod-Rd-02852/home/51993860,RIS,1252607,N,Y,41.5780025,-71.4912722
MLS Listing,,Single Family Residential,640 Old Baptist Rd,North Kingstown,RI,02852,320000,3,2.0,Old Baptist,2112,75000,1962,4,152,,Active,,,http://www.redfin.com/RI/North-Kingstown/640-Old-Baptist-Rd-02852/home/51990003,RIS,1252606,N,Y,41.5981453,-71.4849652
MLS Listing,,Vacant Land,145 Plantation Ln,North Kingstown,RI,02874,939000,,,North Kingstown,,98010,,4,,,Active,,,http://www.redfin.com/RI/Saunderstown/145-Plantation-Ln-02874/home/51993053,RIS,1252672,N,Y,41.5366878,-71.4255713
MLS Listing,,Single Family Residential,20 Pickering Dr,Westerly,RI,02891,369000,3,3.0,Off East Ave,1782,14287,1985,5,207,,Active,,,http://www.redfin.com/RI/Westerly/20-Pickering-Dr-02891/home/51926288,RIS,1250788,N,Y,41.3538238,-71.8232455
MLS Listing,,Single Family Residential,110 Crestfield Ln,North Kingstown,RI,02852,779900,4,2.5,Brookside @ Quiidnessett,4000,40500,1997,5,195,33,Active,,,http://www.redfin.com/RI/North-Kingstown/110-Crest-Field-Ln-02852/home/51988568,RIS,1252660,N,Y,41.6278597,-71.4228629
MLS Listing,,Single Family Residential,25 Palm Beach Ave,Narragansett,RI,02882,659000,4,3.0,BRIGGS FARM BEACH,2618,16801,1963,5,252,,Active,,,http://www.redfin.com/RI/Narragansett/25-Palm-Beach-Ave-02882/home/51976251,RIS,1252595,N,Y,41.4039158,-71.4813015
MLS Listing,,Single Family Residential,49 Sea Grass Way,North Kingstown,RI,02852,619000,3,2.5,Wickford Point,2470,26375,1998,5,251,56,Active,,,http://www.redfin.com/RI/North-Kingstown/49-Sea-Grass-Way-02852/home/51989597,RIS,1252498,N,Y,41.5907539,-71.4460406
MLS Listing,,Single Family Residential,40 Town Dock Rd,Charlestown,RI,02813,679000,3,2.5,Cross Mills,2360,21780,1979,5,288,,Active,,,http://www.redfin.com/RI/Charlestown/40-Town-Dock-Rd-02813/home/51791292,RIS,1252598,N,Y,41.382096,-71.643555
MLS Listing,,Single Family Residential,67 Twin Leaf Trl,Narragansett,RI,02874,461900,5,2.0,Pettaquamscutt Lake Shores,1890,6000,2007,5,244,,Active,,,http://www.redfin.com/RI/Saunderstown/67-Twin-Leaf-Trl-02874/home/51980772,RIS,1252327,N,Y,41.4991383,-71.4395491
MLS Listing,,Vacant Land,0 High Street - Sunset Hill St,Block Island,RI,02807,585000,,,Block Island,,19730,,6,,,Active,,,http://www.redfin.com/RI/New-Shoreham/Sunset-Hill-Rd-02807/home/52005171,RIS,1252417,N,Y,41.166287,-71.56098
MLS Listing,,Vacant Land,0 Tall Timbers Dr,Richmond,RI,02832,49900,,,Richmond,,10019,,6,,,Active,,,http://www.redfin.com/RI/Richmond/Tall-Timbers-Dr-02832/home/171245511,RIS,1252551,N,Y,41.530029,-71.691344
MLS Listing,,Vacant Land,00 Barbers Pond Rd,South Kingstown,RI,02892,279900,,,West Kingston,,160127,,6,,,Active,,,http://www.redfin.com/RI/WEST-KINGSTON/BARBERS-POND-RD-02892/home/51815938,RIS,1252390,N,Y,41.504443,-71.562974
MLS Listing,,Single Family Residential,195 Audubon Rd,North Kingstown,RI,02852,459000,4,2.5,North Kingstown,2959,20038,1985,6,155,8,Active,,,http://www.redfin.com/RI/North-Kingstown/195-Audubon-Rd-02852/home/51993774,RIS,1252537,N,Y,41.5631276,-71.4938576
MLS Listing,,Vacant Land,65 New Rd,Exeter,RI,02822,189900,,,Stone Lane,,126760,,6,,,Active,,,http://www.redfin.com/RI/Exeter/65-New-Rd-02822/home/171445095,RIS,1252529,N,Y,41.5896126,-71.5390373
MLS Listing,,Single Family Residential,10 Vose St,Westerly,RI,02891,374000,4,1.5,Wilcox Park,1613,8614,1925,7,232,,Active,,,http://www.redfin.com/RI/Westerly/10-Vose-St-02891/home/51931105,RIS,1252456,N,Y,41.3758773,-71.822041
MLS Listing,,Condo/Co-op,10 Shadow Farm Way #10,South Kingstown,RI,02879,659000,3,3.0,Silver Lake/Downtown Wakefield,2110,1306800,1902,7,312,722,Active,,,http://www.redfin.com/RI/Wakefield/10-Shadow-Farm-Way-02879/unit-10/home/171437513,RIS,1252366,N,Y,41.437394,-71.4889309
MLS Listing,,Condo/Co-op,13 Jupiter Ln Unit E,Richmond,RI,02898,276900,2,2.5,FOX RUN,1530,,2020,8,181,195,Active,,,http://www.redfin.com/RI/Richmond/13-Jupiter-Ln-02898/unit-E/home/168954484,RIS,1252401,N,Y,41.5150151,-71.6864214
MLS Listing,,Single Family Residential,94 Narragansett St,North Kingstown,RI,02852,479000,3,2.5,Mount View,2040,5858,2019,8,235,,Active,,,http://www.redfin.com/RI/North-Kingstown/94-Narragansett-St-02852/home/51990265,RIS,1252396,N,Y,41.636791,-71.408575
MLS Listing,,Condo/Co-op,13 Jupiter Ln Unit A,Richmond,RI,02898,235900,2,2.0,Richmond,1175,,2020,8,201,195,Active,,,http://www.redfin.com/RI/Richmond/13-Jupiter-Ln-02898/unit-A/home/168954480,RIS,1252376,N,Y,41.5150151,-71.6864214
MLS Listing,,Vacant Land,28 Stone Hill Dr N,Westerly,RI,02891,155000,,,Westerly,,13939,,8,,,Active,,,http://www.redfin.com/RI/Westerly/28-Stone-Hill-Dr-02891/home/51924938,RIS,1252325,N,Y,41.3502287,-71.8180149
MLS Listing,,Single Family Residential,3 Woodlund Ave,Westerly,RI,02891,244900,3,1.0,Smith Plat,1160,10018,1958,8,211,,Active,,,http://www.redfin.com/RI/Westerly/3-Woodlund-Ave-02891/home/51924107,RIS,1252350,N,Y,41.3704838,-71.8175471
MLS Listing,,Single Family Residential,518 Ocean Rd,Narragansett,RI,02882,16750000,5,8.0,Ocean  Road,11941,84942,2016,8,1403,,Active,,,http://www.redfin.com/RI/Narragansett/518-Ocean-Rd-02882/home/51979407,RIS,1251829,N,Y,41.4070697,-71.4577295
MLS Listing,,Single Family Residential,25 Maryann Dr,Exeter,RI,02822,469000,3,2.0,Exeter,2765,40000,1997,9,170,,Active,,,http://www.redfin.com/RI/Exeter/25-Mary-Ann-Dr-02822/home/51961154,RIS,1252306,N,Y,41.585964,-71.527713
MLS Listing,,Single Family Residential,200 Old Boston Neck Rd,Narragansett,RI,02882,689900,2,2.0,Bedford Circle/Middlebridge,1985,22616,1954,9,348,,Active,,,http://www.redfin.com/RI/Narragansett/200-Old-Boston-Neck-Rd-02882/home/51984457,RIS,1252302,N,Y,41.4561941,-71.4431552
MLS Listing,,Vacant Land,80 Central St,Narragansett,RI,02882,499900,,,The Pier,,5198,,11,,,Active,,,http://www.redfin.com/RI/Narragansett/80-Central-St-02882/home/51976836,RIS,1252245,N,Y,41.4290264,-71.4614984
MLS Listing,,Single Family Residential,3398 Kingstown Rd,South Kingstown,RI,02892,320000,3,1.0,"West Kingston, URI",1466,18295,1936,11,218,,Active,,,http://www.redfin.com/RI/West-Kingston/3398-Kingstown-Rd-02892/home/51823938,RIS,1252217,N,Y,41.4830745,-71.5530958
MLS Listing,,Single Family Residential,36 Birch St,Narragansett,RI,02882,489000,4,2.0,Roger Wheeler,1583,17772,1955,12,309,,Active,,,http://www.redfin.com/RI/Narragansett/36-Birch-St-02882/home/51980527,RIS,1252198,N,Y,41.372438,-71.4919269
MLS Listing,,Condo/Co-op,6 Jupiter Ln Unit D,Richmond,RI,02898,249900,2,2.5,FOX RUN,1530,,2020,12,163,195,Active,,,http://www.redfin.com/RI/Richmond/6-Jupiter-Ln-02898/unit-D/home/168954467,RIS,1252196,N,Y,41.5150151,-71.6864214
MLS Listing,,Single Family Residential,260 Waites Corner Rd,South Kingstown,RI,02892,400000,3,2.0,WEST KINGSTON,2168,21344,1987,12,185,,Active,,,http://www.redfin.com/RI/West-Kingston/260-Waites-Corner-Rd-02892/home/51819513,RIS,1252146,N,Y,41.4889782,-71.5567471
MLS Listing,,Condo/Co-op,10 Brandywine Ln,Narragansett,RI,02882,385000,2,2.0,Polo Club,1322,1346,1988,12,291,336,Active,,,http://www.redfin.com/RI/Narragansett/10-Brandywine-Ln-02882/home/51982605,RIS,1251971,N,Y,41.4141564,-71.4764792
MLS Listing,,Multi-Family (2-4 Unit),310 Annaquatucket Rd,North Kingstown,RI,02852,419000,4,2.0,Wickford,1862,40521,1986,12,225,,Active,,,http://www.redfin.com/RI/North-Kingstown/310-Annaquatucket-Rd-02852/home/51993897,RIS,1252152,N,Y,41.554692,-71.45039
MLS Listing,,Single Family Residential,144 Beach St,Westerly,RI,02891,429900,4,2.0,Historic downtown and Watch Hill,2072,10200,1929,13,207,,Active,,,http://www.redfin.com/RI/Westerly/144-Beach-St-02891/home/51925680,RIS,1252139,N,Y,41.3535245,-71.8274614
MLS Listing,,Single Family Residential,95 Paula Dr,North Kingstown,RI,02852,324900,3,1.0,Forest Park,2568,25,1962,13,127,,Active,,,http://www.redfin.com/RI/North-Kingstown/95-Paula-Dr-02852/home/51987017,RIS,1252131,N,Y,41.6208925,-71.4543444
MLS Listing,,Single Family Residential,3474 Kingstown Rd Rd,South Kingstown,RI,02892,349900,3,2.0,Kingston,1518,22651,1860,13,231,,Active,,,http://www.redfin.com/RI/West-Kingston/3474-Kingstown-Rd-02892/home/51824045,RIS,1252095,N,Y,41.4835052,-71.5558118
MLS Listing,,Single Family Residential,115 Green Hill Beach Rd,South Kingstown,RI,02879,789000,4,3.5,Green Hill Beach,2815,58806,1997,13,280,,Active,,,http://www.redfin.com/RI/South-Kingstown/115-Green-Hill-Beach-Rd-02879/home/51815725,RIS,1251972,N,Y,41.3902331,-71.6056366
MLS Listing,,Condo/Co-op,4 Jupiter Ln Unit H,Richmond,RI,02898,214900,2,2.0,FOX RUN,1175,,2020,13,183,195,Active,,,http://www.redfin.com/RI/Richmond/4-Jupiter-Ln-02898/unit-H/home/168954453,RIS,1252124,N,Y,41.5150151,-71.6864214
MLS Listing,,Single Family Residential,365 Leisure Dr,South Kingstown,RI,02879,229500,3,2.0,VILLAGE AT WORDEN'S POND,1680,10000,2001,13,137,471,Active,,,http://www.redfin.com/RI/Wakefield/365-Leisure-Dr-02879/home/51826406,RIS,1252111,N,Y,41.424995,-71.584261
MLS Listing,,Single Family Residential,43 Middle Rd,South Kingstown,RI,02879,1399990,3,3.5,Green Hill,2656,65340,1998,13,527,17,Active,,,http://www.redfin.com/RI/South-Kingstown/43-Middle-Rd-02879/home/51822888,RIS,1252084,N,Y,41.3727306,-71.5994939
MLS Listing,,Single Family Residential,140 Enterprise Ter,South Kingstown,RI,02881,454900,3,3.0,Kingston,3338,31363,1978,13,136,,Active,,,http://www.redfin.com/RI/Kingston/140-Enterprise-Ter-02881/home/51818650,RIS,1252073,N,Y,41.4686818,-71.5320796
MLS Listing,,Single Family Residential,210 Mountain Laurel Way,North Kingstown,RI,02852,600000,1,1.0,Mountain Laurel-Quidnessett,1068,94525,2016,13,562,,Active,,,http://www.redfin.com/RI/North-Kingstown/210-Mountain-Laurel-Way-02852/home/112362958,RIS,1252072,N,Y,41.6351141,-71.4471348
MLS Listing,,Single Family Residential,195 Ocean Rd,Narragansett,RI,02882,1495000,5,4.0,PIER/ THE SEA WALL,3016,5771,1880,14,496,,Active,,,http://www.redfin.com/RI/Narragansett/195-Ocean-Rd-02882/home/51982110,RIS,1249151,N,Y,41.4219693,-71.4565822
MLS Listing,,Single Family Residential,71 Lake Dr,North Kingstown,RI,02852,240900,3,1.0,DAVISVILLE,1920,9414,1955,14,125,,Active,,,http://www.redfin.com/RI/North-Kingstown/71-Lake-Dr-02852/home/51993037,RIS,1252041,N,Y,41.6146969,-71.4673768
MLS Listing,,Single Family Residential,215 Hallville Rd,Exeter,RI,02822,69900,3,1.0,EXETER,943,20037,1958,14,74,,Active,,,http://www.redfin.com/RI/Exeter/215-Hallville-Rd-02822/home/51960682,RIS,1252040,N,Y,41.5669449,-71.575201
MLS Listing,,Single Family Residential,50 Sunset Blvd,Narragansett,RI,02882,950000,7,2.5,Pt Judith,3488,144619,1879,14,272,,Active,,,http://www.redfin.com/RI/Narragansett/50-Sunset-Blvd-02882/home/51983037,RIS,1251738,N,Y,41.384442,-71.489801
MLS Listing,,Single Family Residential,231 Sand Turn Rd,South Kingstown,RI,02892,299000,3,2.0,West Kingston,1382,236095,1987,14,216,,Active,,,http://www.redfin.com/RI/West-Kingston/231-Sand-Turn-Rd-02892/home/51821419,RIS,1252019,N,Y,41.501508,-71.576132
